Project Name,Latitude,Longitude,Google Maps URL,Micromarket Name
Casagrand Galileo,13.0070447,77.6900495,"https://www.google.com/maps/place/Casagrand+Galileo/@13.0070447,77.6900495,17z/data=!3m1!4b1!4m6!3m5!1s0x3bae113ec482eb35:0xedb4a67a0b2caced!8m2!3d13.0070395!4d77.6926244!16s%2Fg%2F11rnntz15s?entry=ttu&g_ep=EgoyMDI0MTEwNi4wIKXMDSoASAFQAw%3D%3D",Mahadevapura
Ruchira Parkeast,13.0312165,77.7582359,"https://www.google.com/maps/place/Park+East+by+Ruchira/@13.0312165,77.7582359,17z/data=!3m1!4b1!4m6!3m5!1s0x3bae0f245bf65689:0x50192ca61b37cb7b!8m2!3d13.0312113!4d77.7608108!16s%2Fg%2F11sqw84h8c?entry=ttu&g_ep=EgoyMDI0MTEwNi4wIKXMDSoASAFQAw%3D%3D",Kannamangala
Aryan Krishnaa Divine,13.0987287,77.5578259,"https://www.google.com/maps/place/Aryan+Krishnaa+Divine/@13.0987287,77.5578259,17z/data=!3m1!4b1!4m6!3m5!1s0x3bae19abdc03add3:0xd16f5c44d57f70e7!8m2!3d13.0987235!4d77.5604008!16s%2Fg%2F11ss_shy2g?entry=ttu&g_ep=EgoyMDI0MTEwNi4wIKXMDSoASAFQAw%3D%3D",Bylakere
DS Max Sukruth,12.7792864,77.7116197,"https://www.google.com/maps/place/DS-MAX+Sukruth/@12.7792864,77.7116197,17z/data=!3m1!4b1!4m6!3m5!1s0x3bae6ffb66acaae9:0x43732ecdb3d39024!8m2!3d12.7792812!4d77.7141946!16s%2Fg%2F11rpbsh26j?entry=ttu&g_ep=EgoyMDI0MTEwNi4wIKXMDSoASAFQAw%3D%3D",Bommasandra
Tivoli Hills ,13.2582683,77.7059096,"https://www.google.com/maps/place/Purva+Tivoli+Hills/@13.2582683,77.7059096,17z/data=!3m1!4b1!4m6!3m5!1s0x3bb1e5551596e4e5:0x907c2c6ea1f71228!8m2!3d13.2582631!4d77.7084845!16s%2Fg%2F11rxv19b7j?entry=ttu&g_ep=EgoyMDI0MTEwNi4wIKXMDSoASAFQAw%3D%3D",Devanahalli
SLV Millenial,12.8686568,77.6089124,"https://www.google.com/maps/place/SLV+MILLENNIAL/@12.8686568,77.6089124,17z/data=!3m1!4b1!4m6!3m5!1s0x3bae6b9780bb8a83:0xcd7e865cab355365!8m2!3d12.8686516!4d77.6114873!16s%2Fg%2F11kt8tkk0p?entry=ttu&g_ep=EgoyMDI0MTEwNi4wIKXMDSoASAFQAw%3D%3D",Akshayanagar
Adarsh Green,13.0956375,77.6108132,"https://www.google.com/maps/place/Adarsh+Greens/@13.0956375,77.6108132,17z/data=!3m1!4b1!4m6!3m5!1s0x3bae198a4cbdb539:0xcd04572d8039a54a!8m2!3d13.0956323!4d77.6133881!16s%2Fg%2F11j1f3d77t?entry=ttu&g_ep=EgoyMDI0MTEwNi4wIKXMDSoASAFQAw%3D%3D",Yelahanka
Sobha Crystal Meadows,12.9046144,77.7181041,"https://www.google.com/maps/place/SOBHA+Crystal+Meadows/@12.9046144,77.7181041,17z/data=!3m1!4b1!4m6!3m5!1s0x3bae13b045da25ab:0xd5304d751fff336f!8m2!3d12.9046092!4d77.720679!16s%2Fg%2F11vyyv21s9?entry=ttu&g_ep=EgoyMDI0MTEwNi4wIKXMDSoASAFQAw%3D%3D",Mullur
Acorn Hive,12.8510177,77.7303253,"https://www.google.com/maps/place/Acorn+Hive/@12.8510177,77.7303253,17z/data=!3m1!4b1!4m6!3m5!1s0x3bae6db6a977fe4b:0x66466d293b5fa421!8m2!3d12.8510125!4d77.7329002!16s%2Fg%2F11v3md_6bk?entry=ttu&g_ep=EgoyMDI0MTEwNi4wIKXMDSoASAFQAw%3D%3D",Gopasandra
Pragathi Amber,12.8363956,77.6951623,"https://www.google.com/maps/place/Pragathi+Amber/@12.8363956,77.6951623,17z/data=!3m1!4b1!4m6!3m5!1s0x3bae6c5561a142b7:0xf7c555da3042974d!8m2!3d12.8363904!4d77.6977372!16s%2Fg%2F11clw4nfc3?entry=ttu&g_ep=EgoyMDI0MTEwNi4wIKXMDSoASAFQAw%3D%3D",Electronic City
Purva Promenade,13.0621163,77.6604752,"https://www.google.com/maps/place/Purva+Promenade/@13.0621163,77.6604752,17z/data=!3m1!4b1!4m6!3m5!1s0x3bae1758db2b5cf5:0xd3314b37b2b694e8!8m2!3d13.0621111!4d77.6630501!16s%2Fg%2F11qpzmyqr8?entry=ttu&g_ep=EgoyMDI0MTEwNi4wIKXMDSoASAFQAw%3D%3D",Kyalasanahalli
Vashudha Parkone,12.8970983,77.5346167,"https://www.google.com/maps/place/Vasudha+Parkone/@12.8970983,77.5346167,17z/data=!3m1!4b1!4m6!3m5!1s0x3bae3f0515fe9607:0xcbc81bf2b489b3d8!8m2!3d12.8970931!4d77.5371916!16s%2Fg%2F11sgysfp50?entry=ttu&g_ep=EgoyMDI0MTEwNi4wIKXMDSoASAFQAw%3D%3D",Uttarahalli
Abhigna Misty Woods,12.9049173,77.5762885,"https://www.google.com/maps/place/Abhigna+Misty+Woods/@12.9049173,77.5762885,17z/data=!3m1!4b1!4m6!3m5!1s0x3bae158d80750d83:0xea0016e37e63820c!8m2!3d12.9049121!4d77.5788634!16s%2Fg%2F11q1gcww86?entry=ttu&g_ep=EgoyMDI0MTEwNi4wIKXMDSoASAFQAw%3D%3D",J P Nagar
Mahaveer Celesse,13.1500894,77.6163141,"https://www.google.com/maps/place/Mahaveer+Celesse,+Mahaveer+Celesse+Yelahanka,+Hyderabad+-+Bangalore+Hwy,+Hunasamaranahalli,+Bengaluru,+Karnataka+562157/@13.1500894,77.6163141,17z/data=!3m1!4b1!4m6!3m5!1s0x3bae1ed2af529edd:0x4e653ee233f0df99!8m2!3d13.1500842!4d77.618889!16s%2Fg%2F11clzvcvym?entry=ttu&g_ep=EgoyMDI0MTEwNi4wIKXMDSoASAFQAw%3D%3D",Yelahanka
Shriram Solitaire,13.1043085,77.5536494,"https://www.google.com/maps/place/Shriram+Solitaire/@13.1043085,77.5536494,17z/data=!3m1!4b1!4m6!3m5!1s0x3bae2377b46bed5b:0x722449411e046933!8m2!3d13.1043033!4d77.5562243!16s%2Fg%2F11tjp3qxrp?entry=ttu&g_ep=EgoyMDI0MTEwNi4wIKXMDSoASAFQAw%3D%3D",Bylakere
Casagrand Orlena,13.0435991,77.6328433,"https://www.google.com/maps/place/Casagrand+Orlena/@13.0435991,77.6328433,17z/data=!3m1!4b1!4m6!3m5!1s0x3bae176371913c27:0xa07cc737b11dbc44!8m2!3d13.0435939!4d77.6354182!16s%2Fg%2F11rw_mx6h4?entry=ttu&g_ep=EgoyMDI0MTEwNi4wIKXMDSoASAFQAw%3D%3D",Hennur
Elegant Terraces,12.9300185,77.523881,"https://www.google.com/maps/place/Elegant+Terraces/@12.9300185,77.523881,17z/data=!3m1!4b1!4m6!3m5!1s0x3bae3f004653496f:0xfb1bc23af98e0b20!8m2!3d12.9300133!4d77.5264559!16s%2Fg%2F11vz5m30mg?entry=ttu&g_ep=EgoyMDI0MTEwNi4wIKXMDSoASAFQAw%3D%3D",Rajarajeshwari Nagar
Golden Pearl,12.9147373,77.5279216,"https://www.google.com/maps/search/Golden+Pearl,+Bengaluru,+Karnataka,+India/@12.9147373,77.5279216,11z/data=!3m1!4b1?entry=ttu&g_ep=EgoyMDI0MTEwNi4wIKXMDSoASAFQAw%3D%3D",Rajarajeshwari Nagar
Atoms Silverwood,13.2009062,77.5436118,"https://www.google.com/maps/place/Atmos+Silverwoods+Villas/@13.2009062,77.5436118,17z/data=!3m1!4b1!4m6!3m5!1s0x3bae21a13b07ce21:0x5a31856d952f1f75!8m2!3d13.200901!4d77.5461867!16s%2Fg%2F11v43r2hx0?entry=ttu&g_ep=EgoyMDI0MTEwNi4wIKXMDSoASAFQAw%3D%3D",Rajanukunte
Mirabelle,13.0504059,77.6224812,"https://www.google.com/maps/place/Lodha+Mirabelle/@13.0504059,77.6224812,17z/data=!3m1!4b1!4m6!3m5!1s0x3bae17d1f399b41f:0x9e6211cae3335ba3!8m2!3d13.0504007!4d77.6250561!16s%2Fg%2F11vc6blzl4?entry=ttu&g_ep=EgoyMDI0MTEwNi4wIKXMDSoASAFQAw%3D%3D",Nagavara
Preeti Iksa Ville,13.1808861,77.6203166,"https://www.google.com/maps/place/Preeti+Iksa+Ville/@13.1808861,77.6203166,17z/data=!3m1!4b1!4m6!3m5!1s0x3bae1f50b0d79295:0xbdfba4d1df1a5c5c!8m2!3d13.1808809!4d77.6228915!16s%2Fg%2F11smqjvv1w?entry=ttu&g_ep=EgoyMDI0MTEwNi4wIKXMDSoASAFQAw%3D%3D",Bagaluru
Fairmont at Brigade Orchards,13.2289543,77.7165459,"https://www.google.com/maps/place/Fairmont+at+Brigade+Orchards/@13.2289543,77.7165459,17z/data=!3m1!4b1!4m6!3m5!1s0x3bae1d6fdb13935b:0x86c811564dbb3002!8m2!3d13.2289491!4d77.7191208!16s%2Fg%2F11j5rpccqc?entry=ttu&g_ep=EgoyMDI0MTEwNi4wIKXMDSoASAFQAw%3D%3D",Devanahalli
The Imperial Address,12.7409373,77.7063005,"https://www.google.com/maps/place/The+Imperial+Address/@12.7409373,77.7063005,17z/data=!3m1!4b1!4m6!3m5!1s0x3bae6f6160977c4d:0x693f0c5bfbd52c0e!8m2!3d12.7409321!4d77.7088754!16s%2Fg%2F11l9qpdlgh?entry=ttu&g_ep=EgoyMDI0MTEwNi4wIKXMDSoASAFQAw%3D%3D",Anekal
Palm Springs,12.9451135,77.5102952,"https://www.google.com/maps/search/Palm+Springs,+Bengaluru,+Karnataka,+India/@12.9451135,77.5102952,11z/data=!3m1!4b1?entry=ttu&g_ep=EgoyMDI0MTEwNi4wIKXMDSoASAFQAw%3D%3D",Nagarabhavi
KNS Billore,13.2323644,77.5422235,"https://www.google.com/maps/place/KNS+Billore/@13.2323644,77.5422235,17z/data=!3m1!4b1!4m6!3m5!1s0x3bae217f691c07c5:0x9590e490fc5bbd95!8m2!3d13.2323592!4d77.5447984!16s%2Fg%2F11w2fjb16t?entry=ttu&g_ep=EgoyMDI0MTEwNi4wIKXMDSoASAFQAw%3D%3D",Doddaballapura
SNN Raj Serenity,12.8589867,77.6117164,"https://www.google.com/maps/place/SNN+Raj+Serenity,+Suraksha+nagar,+Yelenahalli,+Akshayanagar,+Bengaluru,+Karnataka+560076/@12.8589867,77.6117164,17z/data=!3m1!4b1!4m6!3m5!1s0x3bae6b2151f6f5ed:0x53ad8d5c872815ad!8m2!3d12.8589815!4d77.6142913!16s%2Fg%2F12hll3_tl?entry=ttu&g_ep=EgoyMDI0MTEwNi4wIKXMDSoASAFQAw%3D%3D",Akshayanagar
Engrace by Modern Spaces,12.8632749,77.7536871,"https://www.google.com/maps/place/Engrace+1+by+Modern+Spaaces/@12.8632749,77.7536871,17z/data=!3m1!4b1!4m6!3m5!1s0x3bae7331279486b3:0xd451b25415bce506!8m2!3d12.8632697!4d77.756262!16s%2Fg%2F11kk61g79b?entry=ttu&g_ep=EgoyMDI0MTEwNi4wIKXMDSoASAFQAw%3D%3D",Sarjapura
Brigade Insignia,13.1103693,77.6041328,"https://www.google.com/maps/place/Brigade+Insignia/@13.1103693,77.6041328,17z/data=!3m1!4b1!4m6!3m5!1s0x3bae19c9f133f78f:0xa961591066710662!8m2!3d13.1103641!4d77.6067077!16s%2Fg%2F11vlbp9df1?entry=ttu&g_ep=EgoyMDI0MTEwNi4wIKXMDSoASAFQAw%3D%3D",Yelahanka
Prestige Dew Drops,13.1831499,77.5538747,"https://www.google.com/maps/place/Prestige+Dew+Drops/@13.1831499,77.5538747,17z/data=!3m1!4b1!4m6!3m5!1s0x3bae2126fb1fe12d:0x7cf2d6aa92f2a7a8!8m2!3d13.1831447!4d77.5564496!16s%2Fg%2F11t6tnp9py?entry=ttu&g_ep=EgoyMDI0MTEwNi4wIKXMDSoASAFQAw%3D%3D",Rajanukunte
Svamitva Terravana,12.7443215,77.4840069,"https://www.google.com/maps/place/Svamitva+Terravana/@12.7443215,77.4840069,17z/data=!3m1!4b1!4m6!3m5!1s0x3bae43ecce40b8f5:0xc1c4b88234a924b2!8m2!3d12.7443163!4d77.4865818!16s%2Fg%2F11kz5rrghw?entry=ttu&g_ep=EgoyMDI0MTEwNi4wIKXMDSoASAFQAw%3D%3D",Bangalore South
Provident Park Square,12.8638467,77.5381019,"https://www.google.com/maps/place/Provident+park+square,+3D+-+303,+near+Paramount+Gardens,+Judicial+Layout+2nd+Phase,+Talaghattapura,+Bengaluru,+Karnataka+560062/@12.8638467,77.5381019,17z/data=!3m1!4b1!4m6!3m5!1s0x3bae400d68e76e49:0xf316bc0ef8e0a58c!8m2!3d12.8638415!4d77.5406768!16s%2Fg%2F11vc6tbnjm?entry=ttu&g_ep=EgoyMDI0MTEwNi4wIKXMDSoASAFQAw%3D%3D",Banashankari 6th Stage
Oakville,12.9024916,77.5174958,"https://www.google.com/maps/place/Oakville/@12.9024916,77.5174958,17z/data=!3m1!4b1!4m6!3m5!1s0x3bae3f70bbe7fe6b:0xe9667ea9d4c92a26!8m2!3d12.9024864!4d77.5200707!16s%2Fg%2F11v44_q8mt?entry=ttu&g_ep=EgoyMDI0MTEwNi4wIKXMDSoASAFQAw%3D%3D",Banashankari 6th Stage
Mittal Elanza,13.1034749,77.6189446,"https://www.google.com/maps/place/Mittal+Elanza/@13.1034749,77.6189446,17z/data=!3m1!4b1!4m6!3m5!1s0x3bae19a78fe121df:0x6798275f8e8e29d1!8m2!3d13.1034697!4d77.6215195!16s%2Fg%2F11c1mm6n07?entry=ttu&g_ep=EgoyMDI0MTEwNi4wIKXMDSoASAFQAw%3D%3D",Yelahanka
DS Max Sky Sanjeevini,13.0921598,77.4388881,"https://www.google.com/maps/place/DS+MAX+SkySanjeevini/@13.0921598,77.4388881,17z/data=!3m1!4b1!4m6!3m5!1s0x3bae257de1a38209:0x7e686d4b649efdc6!8m2!3d13.0921546!4d77.441463!16s%2Fg%2F11kb589khw?entry=ttu&g_ep=EgoyMDI0MTEwNi4wIKXMDSoASAFQAw%3D%3D",Vaderahalli
Purva Zenium,13.1460978,77.6363508,"https://www.google.com/maps/place/Purva+Zenium/@13.1460978,77.6363508,17z/data=!3m1!4b1!4m6!3m5!1s0x3bae198832e8b5df:0xe35302a5286768d2!8m2!3d13.1460926!4d77.6389257!16s%2Fg%2F11gy9x4h_c?entry=ttu&g_ep=EgoyMDI0MTEwNi4wIKXMDSoASAFQAw%3D%3D",Bagaluru
DS Max Sovereign,13.03521,77.6994676,"https://www.google.com/maps/place/DS+MAX+SOVEREIGN/@13.03521,77.6994676,17z/data=!3m1!4b1!4m6!3m5!1s0x3bae11422b7cc5fb:0xaa58119f2ceec782!8m2!3d13.0352048!4d77.7020425!16s%2Fg%2F11tp2sb8m3?entry=ttu&g_ep=EgoyMDI0MTEwNi4wIKXMDSoASAFQAw%3D%3D",Margondanahalli
Artemis Address,13.0311032,77.3856178,"https://www.google.com/maps/place/Artemis+Address/@13.0311032,77.3856178,17z/data=!3m1!4b1!4m6!3m5!1s0x3bae3bdc1b823353:0x2cbc88699362c80c!8m2!3d13.031098!4d77.3881927!16s%2Fg%2F11vs9vhhg2?entry=ttu&g_ep=EgoyMDI0MTEwNi4wIKXMDSoASAFQAw%3D%3D",Nelamangala
Casagrand Flamingo,12.9006426,77.6440557,"https://www.google.com/maps/place/Casagrand+Flamingo/@12.9006426,77.6440557,17z/data=!3m1!4b1!4m6!3m5!1s0x3bae15f55bb69f79:0x2b560ac6ba62fba7!8m2!3d12.9006374!4d77.6466306!16s%2Fg%2F11kjjk859_?entry=ttu&g_ep=EgoyMDI0MTEwNi4wIKXMDSoASAFQAw%3D%3D",HSR Layout
VBHC Havens of Joy,12.8832411,77.4701964,"https://www.google.com/maps/place/VBHC+Haven+of+Joy/@12.8832411,77.4701964,17z/data=!3m1!4b1!4m6!3m5!1s0x3bae3f4ac89d213f:0x50642e6bfead8b83!8m2!3d12.8832359!4d77.4727713!16s%2Fg%2F11ssqf04pc?entry=ttu&g_ep=EgoyMDI0MTEwNi4wIKXMDSoASAFQAw%3D%3D",Challaghatta
Earthsong,13.2240393,77.6419798,"https://www.google.com/maps/place/Earthsong+by+Manyata+-+Residential+Plots+in+Bangalore/@13.2240393,77.6419798,17z/data=!3m1!4b1!4m6!3m5!1s0x3bae1e1033f5ba57:0x374ace73cdcc19f!8m2!3d13.2240341!4d77.6445547!16s%2Fg%2F11f088hx4c?entry=ttu&g_ep=EgoyMDI0MTEwNi4wIKXMDSoASAFQAw%3D%3D",Devanahalli
Tata Raagam,13.189456,77.6614468,"https://www.google.com/maps/search/Tata+Raagam,+Bengaluru,+Karnataka,+India/@13.189456,77.6614468,16z/data=!3m1!4b1?entry=ttu&g_ep=EgoyMDI0MTEwNi4wIKXMDSoASAFQAw%3D%3D",Airport City
DNR Solace,13.2676829,77.6692257,"https://www.google.com/maps/place/DNR+Solace/@13.2676829,77.6692257,17z/data=!3m1!4b1!4m6!3m5!1s0x3bb1e38e69b10e99:0x6dd017544999dd0f!8m2!3d13.2676777!4d77.6718006!16s%2Fg%2F11l2hpwd2r?entry=ttu&g_ep=EgoyMDI0MTEwNi4wIKXMDSoASAFQAw%3D%3D",Devanahalli
DS Max Sky Samurai,12.9834362,77.8228921,"https://www.google.com/maps/place/Ds+Max+SkySamurai/@12.9834362,77.8228921,17z/data=!3m1!4b1!4m6!3m5!1s0x3bae0f002daed4ab:0x78a31842c080ad52!8m2!3d12.983431!4d77.825467!16s%2Fg%2F11w4_qv9hg?entry=ttu&g_ep=EgoyMDI0MTEwNi4wIKXMDSoASAFQAw%3D%3D",Hoskote
Nambiar Ellegenza,12.8419107,77.7278157,"https://www.google.com/maps/place/Nambiar+Ellegenza/@12.8419107,77.7278157,17z/data=!3m1!4b1!4m6!3m5!1s0x3bae6d71e2730365:0x34c3f0269c053f82!8m2!3d12.8419055!4d77.7303906!16s%2Fg%2F11clyt2q9j?entry=ttu&g_ep=EgoyMDI0MTEwNi4wIKXMDSoASAFQAw%3D%3D",Muthanallur
DS MAX Stavam,13.1328785,77.5792248,"https://www.google.com/maps/place/4HMJ%2B5P2+Ds+Max+Stavam,+harohali+lake+north,+taluka,+ISRO+Layout+Phase+II,+Harohalli,+Bengaluru,+Karnataka+560064/@13.1328785,77.5792248,17z/data=!3m1!4b1!4m6!3m5!1s0x3bae18b903bb3f57:0x6fa19c5c998d8ef2!8m2!3d13.1328733!4d77.5817997!16s%2Fg%2F11q3stxcpf?entry=ttu&g_ep=EgoyMDI0MTEwNi4wIKXMDSoASAFQAw%3D%3D",Yelahanka
Sobha Ayana at Dream acres wing 60 to 71,12.9443972,77.7047972,"https://www.google.com/maps/dir/Sobha+Dream+Acres+Wing+13,+Panathur+Main+Road,+Balagere,+Bengaluru,+Karnataka+560087/Building+number+71,+71,+6th+Cross+Rd,+Sri+Venkateshwara+Layout,+Munnekollal,+Bengaluru,+Karnataka+560037/@12.9443972,77.7047972,15z/data=!3m1!4b1!4m13!4m12!1m5!1m1!1s0x3bae137a69792b75:0xc814f7eb6756fe5c!2m2!1d77.7212969!2d12.9371135!1m5!1m1!1s0x3bae13e116d5692f:0x25df7604edf4f799!2m2!1d77.7106998!2d12.9513841?entry=ttu&g_ep=EgoyMDI0MTEwNi4wIKXMDSoASAFQAw%3D%3D",Brookefield
DS Max Shresta,13.0989438,77.6366621,"https://www.google.com/maps/place/DS-MAX+Shresta/@13.0989438,77.6366621,17z/data=!3m1!4b1!4m6!3m5!1s0x3bae1987366369fb:0xc06949861b034026!8m2!3d13.0989386!4d77.639237!16s%2Fg%2F11shlkk8r5?entry=ttu&g_ep=EgoyMDI0MTEwNi4wIKXMDSoASAFQAw%3D%3D",Yelahanka
Assetz Soho & Sky,13.0714202,77.6125958,"https://www.google.com/maps/place/Assetz+Soho+%26+Sky/@13.0714202,77.6125958,17z/data=!3m1!4b1!4m6!3m5!1s0x3bae1989e1340dd5:0x198e8545a242c52a!8m2!3d13.071415!4d77.6151707!16s%2Fg%2F11h5smtfz4?entry=ttu&g_ep=EgoyMDI0MTEwNi4wIKXMDSoASAFQAw%3D%3D",Jakkur
Adarsh Sanctuary,12.8817511,77.7004886,"https://www.google.com/maps/place/Adarsh+Sanctuary/@12.8817511,77.7004886,17z/data=!3m1!4b1!4m6!3m5!1s0x3bae1363a78b4889:0xac860261de811890!8m2!3d12.8817459!4d77.7030635!16s%2Fg%2F11jcs49zqc?entry=ttu&g_ep=EgoyMDI0MTEwNi4wIKXMDSoASAFQAw%3D%3D",Avalahalli
Brigade Komarla Heights,12.9127452,77.5498828,"https://www.google.com/maps/place/Brigade+Komarla+Heights/@12.9127452,77.5498828,17z/data=!3m1!4b1!4m6!3m5!1s0x3bae3fc6a90b8987:0x8cfe1dac90d37576!8m2!3d12.91274!4d77.5524577!16s%2Fg%2F11thn9cnz9?entry=ttu&g_ep=EgoyMDI0MTEwNi4wIKXMDSoASAFQAw%3D%3D",Uttarahalli
Bhoo Aabharana,13.0628495,77.6612075,"https://www.google.com/maps/place/Bhoo+Aabharana/@13.0628495,77.6612075,17z/data=!3m1!4b1!4m6!3m5!1s0x3bae1b6e472d060b:0xbb255be014b5235!8m2!3d13.0628443!4d77.6637824!16s%2Fg%2F11vk8v7fwd?entry=ttu&g_ep=EgoyMDI0MTEwNi4wIKXMDSoASAFQAw%3D%3D",Kyalasanahalli
Ambience Downtown,13.0019437,77.6285348,"https://www.google.com/maps/place/Ambience+Downtown/@13.0019437,77.6285348,17z/data=!3m1!4b1!4m6!3m5!1s0x3bae17b33bb2c21d:0x5255e4a72559836b!8m2!3d13.0019385!4d77.6311097!16s%2Fg%2F11j3rx9s_5?entry=ttu&g_ep=EgoyMDI0MTEwNi4wIKXMDSoASAFQAw%3D%3D",Baiyappanahalli
Prestige Fairfield,13.0460297,77.5688012,"https://www.google.com/maps/place/PRESTIGE+FAIRFIELD/@13.0460297,77.5688012,17z/data=!3m1!4b1!4m6!3m5!1s0x3bae17b0d1df7eb7:0xee46e57bdfd4d289!8m2!3d13.0460245!4d77.5713761!16s%2Fg%2F11g10gnyhg?entry=ttu&g_ep=EgoyMDI0MTEwNi4wIKXMDSoASAFQAw%3D%3D",Radhakrishna Temple Ward
Parkwest,12.9661532,77.5562312,"https://www.google.com/maps/place/Park+West/@12.9661532,77.5562312,17z/data=!3m1!4b1!4m6!3m5!1s0x3bae3f44d72fd2a5:0xa9aad9b153a802f8!8m2!3d12.966148!4d77.5588061!16s%2Fg%2F11gnsv56kw?entry=ttu&g_ep=EgoyMDI0MTEwNi4wIKXMDSoASAFQAw%3D%3D",Nagarabhavi
SNN Raj Viviente,12.8527292,77.5976751,"https://www.google.com/maps/place/SNN+Raj+Viviente/@12.8527292,77.5976751,17z/data=!3m1!4b1!4m6!3m5!1s0x3bae6b7e16364e9b:0x7919b132ab2d2246!8m2!3d12.852724!4d77.60025!16s%2Fg%2F11pzrf3_b_?entry=ttu&g_ep=EgoyMDI0MTEwNi4wIKXMDSoASAFQAw%3D%3D",Akshayanagar
Earth and Essence,13.0557018,77.5133445,"https://www.google.com/maps/search/Earth+and+Essence,+Bengaluru,+Karnataka,+India/@13.0557018,77.5133445,12z/data=!3m1!4b1?entry=ttu&g_ep=EgoyMDI0MTEwNi4wIKXMDSoASAFQAw%3D%3D",Jalahalli
Prestige Primrose Hills,12.8675575,77.5210609,"https://www.google.com/maps/place/Prestige+Primrose+Hills/@12.8675575,77.5210609,17z/data=!3m1!4b1!4m6!3m5!1s0x3bae3f2339db1c29:0x7a240c051fc1bd68!8m2!3d12.8675523!4d77.5236358!16s%2Fg%2F11h3jhtc_m?entry=ttu&g_ep=EgoyMDI0MTEwNi4wIKXMDSoASAFQAw%3D%3D",Banashankari 6th Stage
Lagos,6.4421096,-9.1314783,"https://www.google.com/maps/dir/Lagos,+Nigeria/Bengaluru,+Karnataka,+India/@6.4421096,-9.1314783,3z/data=!3m1!4b1!4m13!4m12!1m5!1m1!1s0x103b8b2ae68280c1:0xdc9e87a367c3d9cb!2m2!1d3.3792057!2d6.5243793!1m5!1m1!1s0x3bae1670c9b44e6d:0xf8dfc3e8517e4fe0!2m2!1d77.5945627!2d12.9715987?entry=ttu&g_ep=EgoyMDI0MTEwNi4wIKXMDSoASAFQAw%3D%3D",No matching micromarket
Purva Kenso Hills,12.8438055,77.5053893,"https://www.google.com/maps/search/Purva+Kenso+Hills,+Bengaluru,+Karnataka,+India/@12.8438055,77.5053893,11z/data=!3m1!4b1?entry=ttu&g_ep=EgoyMDI0MTEwNi4wIKXMDSoASAFQAw%3D%3D",Kaggalipura
Mathapathi Grand Field,12.9181229,77.7227287,"https://www.google.com/maps/place/Mathapathi+Grand+Field/@12.9181229,77.7227287,17z/data=!3m1!4b1!4m6!3m5!1s0x3bae1357aecfb03f:0x19e6e55ad847d706!8m2!3d12.9181177!4d77.7253036!16s%2Fg%2F11q22qp4y2?entry=ttu&g_ep=EgoyMDI0MTEwNi4wIKXMDSoASAFQAw%3D%3D",Gunjur
Isle of Tree,13.0613916,77.6188152,"https://www.google.com/maps/place/TVS+Emerald+Isle+of+Trees/@13.0613916,77.6188152,17z/data=!3m1!4b1!4m6!3m5!1s0x3bae19f7c8044193:0xd947d7438581a352!8m2!3d13.0613864!4d77.6213901!16s%2Fg%2F11vy5dhyg0?entry=ttu&g_ep=EgoyMDI0MTEwNi4wIKXMDSoASAFQAw%3D%3D",Jakkur
Century Novus,13.085883,77.6015465,"https://www.google.com/maps/place/Century+Novus/@13.085883,77.6015465,17z/data=!3m1!4b1!4m6!3m5!1s0x3bae19cc9f761eb1:0xdf273d8f78f06901!8m2!3d13.0858778!4d77.6041214!16s%2Fg%2F11mhhwty4b?entry=ttu&g_ep=EgoyMDI0MTEwNi4wIKXMDSoASAFQAw%3D%3D",Jakkur
DSR RR Avenue,13.1066874,77.5787711,"https://www.google.com/maps/place/DSR+RR+Avenues/@13.1066874,77.5787711,17z/data=!3m1!4b1!4m6!3m5!1s0x3bae193095daf92b:0x3b9ef8a1303a581e!8m2!3d13.1066822!4d77.581346!16s%2Fg%2F11h5l5w7d5?entry=ttu&g_ep=EgoyMDI0MTEwNi4wIKXMDSoASAFQAw%3D%3D",Yelahanka
Birla Alokya,12.9897698,77.7863911,"https://www.google.com/maps/place/Birla+Alokya+Whitefield/@12.9897698,77.7863911,17z/data=!3m1!4b1!4m6!3m5!1s0x3bae0f93cea6df95:0xbab9eebc56a3729c!8m2!3d12.9897646!4d77.788966!16s%2Fg%2F11h3v7vcn5?entry=ttu&g_ep=EgoyMDI0MTEwNi4wIKXMDSoASAFQAw%3D%3D",Hoskote
Elegant Tranquility,12.9182578,77.5061891,"https://www.google.com/maps/place/Elegant+Tranquility+-+Rajarajeshwari+Nagar/@12.9182578,77.5061891,17z/data=!3m1!4b1!4m6!3m5!1s0x3bae3ffc25c48639:0x5338e55d35479e02!8m2!3d12.9182526!4d77.508764!16s%2Fg%2F11tg63l4hv?entry=ttu&g_ep=EgoyMDI0MTEwNi4wIKXMDSoASAFQAw%3D%3D",Kengeri
Purva Oakshire,13.0522455,77.6958169,"https://www.google.com/maps/place/Purva+Oakshire/@13.0522455,77.6958169,17z/data=!3m1!4b1!4m6!3m5!1s0x3bae114673f3517f:0xd1e2b6d23466870!8m2!3d13.0522403!4d77.6983918!16s%2Fg%2F11kc67br78?entry=ttu&g_ep=EgoyMDI0MTEwNi4wIKXMDSoASAFQAw%3D%3D",Margondanahalli
Puravankara Purva Meraki,12.9000192,77.6444993,"https://www.google.com/maps/place/Purva+Meraki/@12.9000192,77.6444993,17z/data=!3m1!4b1!4m6!3m5!1s0x3bae15cb32d9d923:0xe79e1ba5079b6df2!8m2!3d12.900014!4d77.6470742!16s%2Fg%2F11l5pnjdcj?entry=ttu&g_ep=EgoyMDI0MTEwNi4wIKXMDSoASAFQAw%3D%3D",HSR Layout
Pursuit of a Radical Rhapsody,12.9881188,77.7178947,"https://www.google.com/maps/place/Pursuit+of+a+Radical+Rhapsody/@12.9881188,77.7178947,17z/data=!3m1!4b1!4m6!3m5!1s0x3bae116a0aaba9b7:0xbcc74f1ce5de81ad!8m2!3d12.9881136!4d77.7204696!16s%2Fg%2F11p735xzv4?entry=ttu&g_ep=EgoyMDI0MTEwNi4wIKXMDSoASAFQAw%3D%3D",Hudi
Helio at Brigade El Dorado,13.1438037,77.675381,"https://www.google.com/maps/place/Helio+at+Brigade+El+Dorado/@13.1438037,77.675381,17z/data=!3m1!4b1!4m6!3m5!1s0x3bae1b65d81df903:0xdb45901e41d45921!8m2!3d13.1437985!4d77.6779559!16s%2Fg%2F11l5zcq0kl?entry=ttu&g_ep=EgoyMDI0MTEwNi4wIKXMDSoASAFQAw%3D%3D",KIADB Park
Icon Calista,12.7974976,77.6828441,"https://www.google.com/maps/place/Icon+Calista/@12.7974976,77.6828441,17z/data=!3m1!4b1!4m6!3m5!1s0x3bae6d9ee8c0557f:0xbcbb65d15bfb0d0e!8m2!3d12.7974924!4d77.685419!16s%2Fg%2F11vclr17ln?entry=ttu&g_ep=EgoyMDI0MTEwNi4wIKXMDSoASAFQAw%3D%3D",Bommasandra
Purva Atmosphere,13.0642735,77.631555,"https://www.google.com/maps/place/Purva+Atmosphere/@13.0642735,77.631555,17z/data=!3m1!4b1!4m6!3m5!1s0x3bae19cd10cc5161:0x95264b2a77b017e2!8m2!3d13.0642683!4d77.6341299!16s%2Fg%2F11j2xmgkbj?entry=ttu&g_ep=EgoyMDI0MTEwNi4wIKXMDSoASAFQAw%3D%3D",Thanisandra
Subram Jade Gardens,13.0404586,77.4916477,"https://www.google.com/maps/place/Subram+Jade+Gardens+-+A+Premium+Apartment+Project/@13.0404586,77.4916477,17z/data=!3m1!4b1!4m6!3m5!1s0x3bae3dd22d274cb9:0x6bc5bd1ac706317a!8m2!3d13.0404534!4d77.4942226!16s%2Fg%2F11h24qn4qg?entry=ttu&g_ep=EgoyMDI0MTEwNi4wIKXMDSoASAFQAw%3D%3D",Nagasandra
DNR Highline,12.9823295,77.5645757,"https://www.google.com/maps/place/DNR+HIGHLINE/@12.9823295,77.5645757,17z/data=!3m1!4b1!4m6!3m5!1s0x3bae17d9680c587b:0x1abe9ad95c97428c!8m2!3d12.9823243!4d77.5671506!16s%2Fg%2F11l19x100r?entry=ttu&g_ep=EgoyMDI0MTEwNi4wIKXMDSoASAFQAw%3D%3D",Rajajinagar
Divine Meadows,12.8677839,77.7983958,"https://www.google.com/maps/place/MJR+Divine+Meadows/@12.8677839,77.7983958,17z/data=!3m1!4b1!4m6!3m5!1s0x3bae73650422d533:0x82029bedc933750f!8m2!3d12.8677787!4d77.8009707!16s%2Fg%2F11t2vkys9s?entry=ttu&g_ep=EgoyMDI0MTEwNi4wIKXMDSoASAFQAw%3D%3D",Sarjapura
Sobha Windsor,12.9727298,77.7603326,"https://www.google.com/maps/place/SOBHA+Windsor/@12.9727298,77.7603326,17z/data=!3m1!4b1!4m6!3m5!1s0x3bae0da8088ccce5:0x8f67987bb9084cd0!8m2!3d12.9727246!4d77.7629075!16s%2Fg%2F11h0_pfcly?entry=ttu&g_ep=EgoyMDI0MTEwNi4wIKXMDSoASAFQAw%3D%3D",White Field
Greenfinch Meadows,12.9391248,77.6853833,"https://www.google.com/maps/place/Greenfinch+Meadows/@12.9391248,77.6853833,17z/data=!3m1!4b1!4m6!3m5!1s0x3bae1392d6693e7d:0x837ef37ac7dd335!8m2!3d12.9391196!4d77.6879582!16s%2Fg%2F11fjqjh53m?entry=ttu&g_ep=EgoyMDI0MTEwNi4wIKXMDSoASAFQAw%3D%3D",Marathahalli
SSVR Niyaara,12.9458159,77.7515595,"https://www.google.com/maps/place/SSVR+Niyaara/@12.9458159,77.7515595,17z/data=!3m1!4b1!4m6!3m5!1s0x3bae0daaea66e09d:0x9e37470dd010b1db!8m2!3d12.9458107!4d77.7541344!16s%2Fg%2F11st_s50hx?entry=ttu&g_ep=EgoyMDI0MTEwNi4wIKXMDSoASAFQAw%3D%3D",Varthur
CoEvolve Florenza,12.8986856,77.7852936,"https://www.google.com/maps/place/Coevolve+Florenza/@12.8986856,77.7852936,17z/data=!3m1!4b1!4m6!3m5!1s0x3bae0ded1fcd1bfb:0x9f0d821d9870bedd!8m2!3d12.8986804!4d77.7878685!16s%2Fg%2F11vc875871?entry=ttu&g_ep=EgoyMDI0MTEwNi4wIKXMDSoASAFQAw%3D%3D",Sarjapura
Rohan Ekanta,12.9271349,77.7222193,"https://www.google.com/maps/place/Rohan+Ekanta/@12.9271349,77.7222193,17z/data=!3m1!4b1!4m6!3m5!1s0x3bae1351c17536f9:0xfaae956741e7ede6!8m2!3d12.9271297!4d77.7247942!16s%2Fg%2F11vhh6wh0r?entry=ttu&g_ep=EgoyMDI0MTEwNi4wIKXMDSoASAFQAw%3D%3D",Gunjur
Aiikya Village,12.846691,77.7798681,"https://www.google.com/maps/place/Aiikya+Village+Sarjapur/@12.846691,77.7798681,17z/data=!3m1!4b1!4m6!3m5!1s0x3bae737907734c5b:0xc6a48fc14593f9f!8m2!3d12.8466858!4d77.782443!16s%2Fg%2F11sz3nw99x?entry=ttu&g_ep=EgoyMDI0MTEwNi4wIKXMDSoASAFQAw%3D%3D",Sarjapura
The Earth,13.0525485,77.4389975,"https://www.google.com/maps/search/The+Earth,+Bengaluru,+Karnataka,+India/@13.0525485,77.4389975,11z/data=!3m1!4b1?entry=ttu&g_ep=EgoyMDI0MTEwNi4wIKXMDSoASAFQAw%3D%3D",Nelamangala
Mana Dale,12.8869612,77.7046435,"https://www.google.com/maps/place/Mana+Dale/@12.8869612,77.7046435,17z/data=!3m1!4b1!4m6!3m5!1s0x3bae13979a1d685b:0x4e115945817a350!8m2!3d12.886956!4d77.7072184!16s%2Fg%2F11vbl93g8p?entry=ttu&g_ep=EgoyMDI0MTEwNi4wIKXMDSoASAFQAw%3D%3D",Chikkakannalli
Govianu Jodidhar Atlantis,13.0642127,77.5863565,"https://www.google.com/maps/place/Govianu+Jodidhar+Atlantis/@13.0642127,77.5863565,17z/data=!3m1!4b1!4m6!3m5!1s0x3bae198da7df424f:0x77a8e08142f31b37!8m2!3d13.0642075!4d77.5889314!16s%2Fg%2F11fjqk37ng?entry=ttu&g_ep=EgoyMDI0MTEwNi4wIKXMDSoASAFQAw%3D%3D",Sahakara Nagar
Trifecta Retto,12.8917564,77.7071981,"https://www.google.com/maps/place/Trifecta+Retto,+Sarjapur+Road,+Bangalore/@12.8917564,77.7071981,17z/data=!3m1!4b1!4m6!3m5!1s0x3bae138013b4d9c1:0x1df5932fcba59dbb!8m2!3d12.8917512!4d77.709773!16s%2Fg%2F11vb7jpy6n?entry=ttu&g_ep=EgoyMDI0MTEwNi4wIKXMDSoASAFQAw%3D%3D",Chikkakannalli
DS Max Stavam Nest,13.1320775,77.5799635,"https://www.google.com/maps/place/Ds+Max+Stavam+Nest/@13.1320775,77.5799635,17z/data=!3m1!4b1!4m6!3m5!1s0x3bae19004c4944c9:0xa39befb34b7bae2b!8m2!3d13.1320723!4d77.5825384!16s%2Fg%2F11ltbx0qq3?entry=ttu&g_ep=EgoyMDI0MTEwNi4wIKXMDSoASAFQAw%3D%3D",Yelahanka
Kumari Oak Ville,12.8842679,77.784366,"https://www.google.com/maps/place/Kumari+Oakville/@12.8842679,77.784366,17z/data=!3m1!4b1!4m6!3m5!1s0x3bae739c9ca6b6c7:0x4c94bea4e4a521b!8m2!3d12.8842627!4d77.7869409!16s%2Fg%2F11hdj5xjj8?entry=ttu&g_ep=EgoyMDI0MTEwNi4wIKXMDSoASAFQAw%3D%3D",Sarjapura
Adarsh Tropica,12.8862943,77.693857,"https://www.google.com/maps/place/Adarsh+Tropica/@12.8862943,77.693857,17z/data=!3m1!4b1!4m6!3m5!1s0x3bae13ccc17c0da3:0x50b54e4f0c6e939!8m2!3d12.8862891!4d77.6964319!16s%2Fg%2F11t30xyh2_?entry=ttu&g_ep=EgoyMDI0MTEwNi4wIKXMDSoASAFQAw%3D%3D",Choodasandra
Kns Ananta,12.9417291,77.4309424,"https://www.google.com/maps/place/KNS+Ananta/@12.9417291,77.4309424,17z/data=!3m1!4b1!4m6!3m5!1s0x3bae3911b062ccc9:0x9d863e898d8ad39d!8m2!3d12.9417239!4d77.4335173!16s%2Fg%2F11stnw8m31?entry=ttu&g_ep=EgoyMDI0MTEwNi4wIKXMDSoASAFQAw%3D%3D",Gongadipura
Evo Aeris,12.835904,77.765339,"https://www.google.com/maps/place/Evo+Aeris,+Evo+Homes/@12.835904,77.765339,17z/data=!3m1!4b1!4m6!3m5!1s0x3bae73006fa1f46f:0x7a5b08de0d110c76!8m2!3d12.8358988!4d77.7679139!16s%2Fg%2F11vqsxq5nx?entry=ttu&g_ep=EgoyMDI0MTEwNi4wIKXMDSoASAFQAw%3D%3D",Sarjapura
PSR Vanasree,12.8880934,77.7071173,"https://www.google.com/maps/place/PSR+VANASREE/@12.8880934,77.7071173,17z/data=!3m1!4b1!4m6!3m5!1s0x3bae1313ad150f67:0x8bc90050648f37e!8m2!3d12.8880882!4d77.7096922!16s%2Fg%2F11v3t36rlv?entry=ttu&g_ep=EgoyMDI0MTEwNi4wIKXMDSoASAFQAw%3D%3D",Chikkakannalli
Terra Alegria,26.9444513,75.9347108,"https://www.google.com/maps/search/Terra+Alegria,+Bengaluru,+Karnataka,+India/@26.9444513,75.9347108,15z?entry=ttu&g_ep=EgoyMDI0MTEwNi4wIKXMDSoASAFQAw%3D%3D",No matching micromarket
Adarsh Savana,13.2087433,77.6011804,"https://www.google.com/maps/place/Adarsh+Savana/@13.2087433,77.6011804,17z/data=!3m1!4b1!4m6!3m5!1s0x3bae1f2c963390d3:0x74e32bba6f5e7182!8m2!3d13.2087381!4d77.6037553!16s%2Fg%2F11rwlncpjw?entry=ttu&g_ep=EgoyMDI0MTEwNi4wIKXMDSoASAFQAw%3D%3D",Devanahalli
Pacific Legacy,12.9008587,77.605565,"https://www.google.com/maps/place/Pacific+Legacy/@12.9008587,77.605565,17z/data=!3m1!4b1!4m6!3m5!1s0x3bae1544d8d16001:0x2e885256f613179b!8m2!3d12.9008535!4d77.6081399!16s%2Fg%2F11vdtbf6jp?entry=ttu&g_ep=EgoyMDI0MTEwNi4wIKXMDSoASAFQAw%3D%3D",Bilekhalli
Sanjeevini Aarna,13.0772884,77.8048705,"https://www.google.com/maps/place/Sanjeevini+Aarna/@13.0772884,77.8048705,17z/data=!3m1!4b1!4m6!3m5!1s0x3bae05bb61e3849d:0xb60db469accbb08d!8m2!3d13.0772832!4d77.8074454!16s%2Fg%2F11wjl668hb?entry=ttu&g_ep=EgoyMDI0MTEwNi4wIKXMDSoASAFQAw%3D%3D",Hoskote
Prestige Elm Park,12.9799015,77.7573134,"https://www.google.com/maps/place/Prestige+Elm+Park/@12.9799015,77.7573134,17z/data=!3m1!4b1!4m6!3m5!1s0x3bae0f00f3cea08d:0xe187c36e049374f2!8m2!3d12.9798963!4d77.7598883!16s%2Fg%2F11t53ylt6k?entry=ttu&g_ep=EgoyMDI0MTEwNi4wIKXMDSoASAFQAw%3D%3D",White Field
Soulace By Modern Spaces,12.8636972,77.7566761,"https://www.google.com/maps/place/Soulace+Villas+by+Modern+Spaaces/@12.8636972,77.7566761,17z/data=!3m1!4b1!4m6!3m5!1s0x3bae7316049f9983:0xe525424e29d76717!8m2!3d12.863692!4d77.759251!16s%2Fg%2F11sk86621s?entry=ttu&g_ep=EgoyMDI0MTEwNi4wIKXMDSoASAFQAw%3D%3D",Sarjapura
Abhee Pride,12.7852602,77.6943512,"https://www.google.com/maps/place/Abhee+Pride/@12.7852602,77.6943512,17z/data=!3m1!4b1!4m6!3m5!1s0x3bae6f7e29e4e305:0x5c8a3750bb8623!8m2!3d12.785255!4d77.6969261!16s%2Fg%2F11tt240ywj?entry=ttu&g_ep=EgoyMDI0MTEwNi4wIKXMDSoASAFQAw%3D%3D",Bommasandra
Binary Temple Tree,12.863574,77.7705606,"https://www.google.com/maps/place/Binary+Temple+Tree/@12.863574,77.7705606,17z/data=!3m1!4b1!4m6!3m5!1s0x3bae73000cbfed1d:0x86b4704e1c53785c!8m2!3d12.8635688!4d77.7731355!16s%2Fg%2F11vk7hzkt8?entry=ttu&g_ep=EgoyMDI0MTEwNi4wIKXMDSoASAFQAw%3D%3D",Sarjapura
Pride Vatika,12.8008366,77.6591741,"https://www.google.com/maps/place/PRIDE+VATIKA/@12.8008366,77.6591741,17z/data=!3m1!4b1!4m6!3m5!1s0x3bae6c058718ed83:0xfb9d3f5cd5d54162!8m2!3d12.8008314!4d77.661749!16s%2Fg%2F11l5ql2xmc?entry=ttu&g_ep=EgoyMDI0MTEwNi4wIKXMDSoASAFQAw%3D%3D",Bommasandra
Classic Canaan,13.2248796,77.7164236,"https://www.google.com/maps/place/Classic+Canaan/@13.2248796,77.7164236,17z/data=!3m1!4b1!4m6!3m5!1s0x3bae1dc300fec93d:0x573541cf0edebea5!8m2!3d13.2248744!4d77.7189985!16s%2Fg%2F11y38jsz52?entry=ttu&g_ep=EgoyMDI0MTEwNi4wIKXMDSoASAFQAw%3D%3D",Devanahalli
Purva Orient Grand,12.9619924,77.5869544,"https://www.google.com/maps/place/Purva+Orient+Grand/@12.9619924,77.5869544,17z/data=!3m1!4b1!4m6!3m5!1s0x3bae151e3ab02823:0xbeec37b4aff45c64!8m2!3d12.9619872!4d77.5895293!16s%2Fg%2F11rxzslvyq?entry=ttu&g_ep=EgoyMDI0MTEwNi4wIKXMDSoASAFQAw%3D%3D",Chickpet
Elegant Hermitage,12.8987203,77.509675,"https://www.google.com/maps/place/Elegant+Hermitage/@12.8987203,77.509675,17z/data=!3m1!4b1!4m6!3m5!1s0x3bae3fba8319e2d3:0xdaa4ed2382f22976!8m2!3d12.8987151!4d77.5122499!16s%2Fg%2F11v0qm1tpp?entry=ttu&g_ep=EgoyMDI0MTEwNi4wIKXMDSoASAFQAw%3D%3D",Banashankari 6th Stage
North Park,12.9882669,77.5772512,"https://www.google.com/maps/place/N+Park+Rd,+Seshadripuram,+Bengaluru,+Karnataka/@12.9882669,77.5772512,17z/data=!3m1!4b1!4m6!3m5!1s0x3bae1615e4b3c4f5:0xe2ce0d10d7fd1f01!8m2!3d12.9882617!4d77.5798261!16s%2Fg%2F1tdghq16?entry=ttu&g_ep=EgoyMDI0MTEwNi4wIKXMDSoASAFQAw%3D%3D",Malleswaram
Sobha Dream Gardens,13.0986723,77.638725,"https://www.google.com/maps/place/SOBHA+Dream+Gardens+(Residential+Apartments+in+Thanisandra)/@13.0986723,77.638725,17z/data=!3m1!4b1!4m6!3m5!1s0x3bae19261265aa95:0xcc6de8ac0fc6561f!8m2!3d13.0986671!4d77.6412999!16s%2Fg%2F11f7760crx?entry=ttu&g_ep=EgoyMDI0MTEwNi4wIKXMDSoASAFQAw%3D%3D",Yelahanka
Raheja Vivarea,12.9267735,77.6288568,"https://www.google.com/maps/place/Raheja+Vivarea/@12.9267735,77.6288568,17z/data=!3m1!4b1!4m6!3m5!1s0x3bae14607dca5be7:0x7498e59c3dbf81b4!8m2!3d12.9267683!4d77.6314317!16s%2Fg%2F11cfd2svp?entry=ttu&g_ep=EgoyMDI0MTEwNi4wIKXMDSoASAFQAw%3D%3D",Koramangala
Savara By Vista Spaces,12.9729754,77.4807035,"https://www.google.com/maps/search/Savara+By+Vista+Spaces,+Bengaluru,+Karnataka,+India/@12.9729754,77.4807035,11z/data=!3m1!4b1?entry=ttu&g_ep=EgoyMDI0MTEwNi4wIKXMDSoASAFQAw%3D%3D",Nagarabhavi
Isha Serene,12.7482677,77.7592845,"https://www.google.com/maps/place/Annciya+Isha+Serene/@12.7482677,77.7592845,17z/data=!3m1!4b1!4m6!3m5!1s0x3bae710047209775:0x42cc99653f73ba8b!8m2!3d12.7482625!4d77.7618594!16s%2Fg%2F11vrv_1r7w?entry=ttu&g_ep=EgoyMDI0MTEwNi4wIKXMDSoASAFQAw%3D%3D",Attibele
Signature Pristine,12.8894369,77.781588,"https://www.google.com/maps/place/Signature+Pristine/@12.8894369,77.781588,17z/data=!3m1!4b1!4m6!3m5!1s0x3bae0da247627647:0xbbf92f21da073cc8!8m2!3d12.8894317!4d77.7841629!16s%2Fg%2F11v0zlxtj5?entry=ttu&g_ep=EgoyMDI0MTEwNi4wIKXMDSoASAFQAw%3D%3D",Sarjapura
Krishvi E-Villas,12.7754083,77.7479784,"https://www.google.com/maps/place/Krishvi+EVilla/@12.7754083,77.7479784,17z/data=!3m1!4b1!4m6!3m5!1s0x3bae71f32a8dc80f:0x1b217d348757f1a7!8m2!3d12.7754031!4d77.7505533!16s%2Fg%2F11sbp2z35c?entry=ttu&g_ep=EgoyMDI0MTEwNi4wIKXMDSoASAFQAw%3D%3D",Attibele
NCC Urban Green Province One,12.8651665,77.7670576,"https://www.google.com/maps/place/NCC+Urban+Green+Province/@12.8651665,77.7670576,17z/data=!3m1!4b1!4m6!3m5!1s0x3bae72c0dc78895d:0xbd82462c514a05d3!8m2!3d12.8651613!4d77.7696325!16s%2Fg%2F11cl_l7583?entry=ttu&g_ep=EgoyMDI0MTEwNi4wIKXMDSoASAFQAw%3D%3D",Sarjapura
Atz Areva,12.9393076,77.7226418,"https://www.google.com/maps/place/ATZ+Areva,+Balagere,+Bengaluru,+Karnataka+560087/@12.9393076,77.7226418,17z/data=!3m1!4b1!4m6!3m5!1s0x3bae12662b20b2c7:0xa5b1a4ca4f28af85!8m2!3d12.9393024!4d77.7252167!16s%2Fg%2F12lrtd2mx?entry=ttu&g_ep=EgoyMDI0MTEwNi4wIKXMDSoASAFQAw%3D%3D",Balagere
The County Address ,12.8804728,77.7849355,"https://www.google.com/maps/place/The+County+Address/@12.8804728,77.7849355,17z/data=!3m1!4b1!4m6!3m5!1s0x3bae72d42ee19e13:0x247baeb4d396b388!8m2!3d12.8804676!4d77.7875104!16s%2Fg%2F11g72mwftj?entry=ttu&g_ep=EgoyMDI0MTEwNi4wIKXMDSoASAFQAw%3D%3D",Sarjapura
Adarsh Welkin Park,12.9065809,77.6168887,"https://www.google.com/maps/search/Adarsh+Welkin+Park,+Bengaluru,+Karnataka,+India/@12.9065809,77.6168887,13z/data=!3m1!4b1?entry=ttu&g_ep=EgoyMDI0MTEwNi4wIKXMDSoASAFQAw%3D%3D",Bilekhalli
Shell Sapphire,12.8667958,77.6822303,"https://www.google.com/maps/place/Shell+Sapphire+Apartment/@12.8667958,77.6822303,17z/data=!3m1!4b1!4m6!3m5!1s0x3bae6d4e4102c9ed:0xe2757a4b06fa6a6f!8m2!3d12.8667906!4d77.6848052!16s%2Fg%2F11kq407clc?entry=ttu&g_ep=EgoyMDI0MTEwNi4wIKXMDSoASAFQAw%3D%3D",Rayasandra
Brigade Horizon,12.8876489,77.4497007,"https://www.google.com/maps/place/Brigade+Horizon+Bengaluru/@12.8876489,77.4497007,17z/data=!3m1!4b1!4m6!3m5!1s0x3bae3fae544ccce1:0x3ccc4b33c5d0e398!8m2!3d12.8876437!4d77.4522756!16s%2Fg%2F11gtgdxl90?entry=ttu&g_ep=EgoyMDI0MTEwNi4wIKXMDSoASAFQAw%3D%3D",Challaghatta
Rohan Upavan,13.0559658,77.6586347,"https://www.google.com/maps/place/Rohan+Upavan/@13.0559658,77.6586347,17z/data=!3m1!4b1!4m6!3m5!1s0x3bae10ab760dc231:0x30dbc8aefa9dde61!8m2!3d13.0559606!4d77.6612096!16s%2Fg%2F11f6mhbxss?entry=ttu&g_ep=EgoyMDI0MTEwNi4wIKXMDSoASAFQAw%3D%3D",Byrathi
Casagrand Meridian,13.0191264,77.7015426,"https://www.google.com/maps/place/Casagrand+Meridian/@13.0191264,77.7015426,17z/data=!3m1!4b1!4m6!3m5!1s0x3bae11b4deeb7cc1:0x97822c66c3df11a7!8m2!3d13.0191212!4d77.7041175!16s%2Fg%2F11tk47n_ct?entry=ttu&g_ep=EgoyMDI0MTEwNi4wIKXMDSoASAFQAw%3D%3D",K R Puram
Ivory at Brigade Orchards,13.2250776,77.7201889,"https://www.google.com/maps/place/Ivory+at+Brigade+Orchards/@13.2250776,77.7201889,17z/data=!3m1!4b1!4m6!3m5!1s0x3bae1d47db0cf911:0x8a5c6ca4f5c3ad1d!8m2!3d13.2250724!4d77.7227638!16s%2Fg%2F11j7hzcygp?entry=ttu&g_ep=EgoyMDI0MTEwNi4wIKXMDSoASAFQAw%3D%3D",Devanahalli
Sobha Manhattan Towers Town Park,12.7867195,77.7415089,"https://www.google.com/maps/place/SOBHA+Manhattan+Towers+-+Townpark/@12.7867195,77.7415089,17z/data=!3m1!4b1!4m6!3m5!1s0x3bae6e03e51367c7:0x65e34df5be85c70d!8m2!3d12.7867143!4d77.7440838!16s%2Fg%2F11kqxls6qg?entry=ttu&g_ep=EgoyMDI0MTEwNi4wIKXMDSoASAFQAw%3D%3D",Attibele
Tetra Grand Green Essence,13.0862161,77.6212453,"https://www.google.com/maps/place/Tetra+grand+green+essence/@13.0862161,77.6212453,17z/data=!3m1!4b1!4m6!3m5!1s0x3bae1900379ee149:0x3d2fe356a69447bf!8m2!3d13.0862109!4d77.6238202!16s%2Fg%2F11wfypl3_k?entry=ttu&g_ep=EgoyMDI0MTEwNi4wIKXMDSoASAFQAw%3D%3D",Jakkur
Radiance Platinum,12.9288876,77.6375551,"https://www.google.com/maps/place/Radiance+Platinum/@12.9288876,77.6375551,17z/data=!3m1!4b1!4m6!3m5!1s0x3bae1551d8fd2f39:0x843b2578709d7c50!8m2!3d12.9288824!4d77.64013!16s%2Fg%2F11w1dbn22k?entry=ttu&g_ep=EgoyMDI0MTEwNi4wIKXMDSoASAFQAw%3D%3D",Koramangala
Sattva Aqua Vista,12.8646846,77.5885511,"https://www.google.com/maps/place/Sattva+Aqua+Vista/@12.8646846,77.5885511,17z/data=!3m1!4b1!4m6!3m5!1s0x3bae6ac114ccffff:0x32b69e92bdbbba1!8m2!3d12.8646794!4d77.591126!16s%2Fg%2F11nnv_60l7?entry=ttu&g_ep=EgoyMDI0MTEwNi4wIKXMDSoASAFQAw%3D%3D",Anjanapura
Rosewood Estates,13.1897652,77.6698067,"https://www.google.com/maps/place/NR+Rosewood+Estates/@13.1897652,77.6698067,17z/data=!3m1!4b1!4m6!3m5!1s0x3bae1d25185fbb81:0x4d7e0271b37c1c55!8m2!3d13.18976!4d77.6723816!16s%2Fg%2F11pzkkb__g?entry=ttu&g_ep=EgoyMDI0MTEwNi4wIKXMDSoASAFQAw%3D%3D",Airport City
Sattva Ashraya,12.8240039,77.4081676,"https://www.google.com/maps/place/Sattva+Ashraya/@12.8240039,77.4081676,17z/data=!3m1!4b1!4m6!3m5!1s0x3bae47ba4d9ee9d7:0x181fb80779bb87f3!8m2!3d12.8239987!4d77.4107425!16s%2Fg%2F11t056rvdl?entry=ttu&g_ep=EgoyMDI0MTEwNi4wIKXMDSoASAFQAw%3D%3D",Bangalore South
KNS Adrika ,12.8793177,77.3703626,"https://www.google.com/maps/place/KNS+Aadrika/@12.8793177,77.3703626,17z/data=!3m1!4b1!4m6!3m5!1s0x3bae375409e1667b:0xe6ecbcdd88836e6c!8m2!3d12.8793125!4d77.3729375!16s%2Fg%2F11srty7py_?entry=ttu&g_ep=EgoyMDI0MTEwNi4wIKXMDSoASAFQAw%3D%3D",Sulivara
Sowparnika Pragati,12.883625,77.7850917,"https://www.google.com/maps/place/Sowparnika+Pragati/@12.883625,77.7850917,17z/data=!3m1!4b1!4m6!3m5!1s0x3bae73b689724c37:0xf170732c0da723ef!8m2!3d12.8836198!4d77.7876666!16s%2Fg%2F11mtjpc1qj?entry=ttu&g_ep=EgoyMDI0MTEwNi4wIKXMDSoASAFQAw%3D%3D",Sarjapura
Bren Zahara,12.9017815,77.667809,"https://www.google.com/maps/place/Bren+Zahara/@12.9017815,77.667809,17z/data=!3m1!4b1!4m6!3m5!1s0x3bae13995d08d7b7:0xee5e81b765434408!8m2!3d12.9017763!4d77.6703839!16s%2Fg%2F11n8887vp5?entry=ttu&g_ep=EgoyMDI0MTEwNi4wIKXMDSoASAFQAw%3D%3D",Harlur
Casagrand Aquene,12.9077192,77.4830743,"https://www.google.com/maps/place/Casagrand+Aquene/@12.9077192,77.4830743,17z/data=!3m1!4b1!4m6!3m5!1s0x3bae3feb10352193:0x864a2c902f279bc8!8m2!3d12.907714!4d77.4856492!16s%2Fg%2F11rqmmxrgc?entry=ttu&g_ep=EgoyMDI0MTEwNi4wIKXMDSoASAFQAw%3D%3D",Kengeri
Brigade Sanctuary,12.8950677,77.7464876,"https://www.google.com/maps/place/Brigade+Sanctuary/@12.8950677,77.7464876,17z/data=!3m1!4b1!4m6!3m5!1s0x3bae0d349b28b3eb:0xda1a5baa9c239d1a!8m2!3d12.8950625!4d77.7490625!16s%2Fg%2F11kpd84hgk?entry=ttu&g_ep=EgoyMDI0MTEwNi4wIKXMDSoASAFQAw%3D%3D",Kachamaranahalli
Classic Bulwark Village ,13.2297459,77.715235,"https://www.google.com/maps/place/TGH+Classic+Bulwark+Village/@13.2297459,77.715235,17z/data=!3m1!4b1!4m6!3m5!1s0x3bae18347e7d9f99:0xd6855b6ccfdd788e!8m2!3d13.2297407!4d77.7178099!16s%2Fg%2F11bv3mp_6v?entry=ttu&g_ep=EgoyMDI0MTEwNi4wIKXMDSoASAFQAw%3D%3D",Devanahalli
Prestige Serenity Shores,12.9313226,77.734277,"https://www.google.com/maps/place/Prestige+Serenity+Shores/@12.9313226,77.734277,17z/data=!3m1!4b1!4m6!3m5!1s0x3bae139cf7ac485b:0xa309e8b3dc1dd120!8m2!3d12.9313174!4d77.7368519!16s%2Fg%2F11ny2l9tdj?entry=ttu&g_ep=EgoyMDI0MTEwNi4wIKXMDSoASAFQAw%3D%3D",Gunjur
Abhee Celestial City,12.8988726,77.745852,"https://www.google.com/maps/search/Abhee+Celestial+City,+Bengaluru,+Karnataka,+India/@12.8988726,77.745852,17z/data=!3m1!4b1?entry=ttu&g_ep=EgoyMDI0MTEwNi4wIKXMDSoASAFQAw%3D%3D",Kachamaranahalli
Arsis Green Hills,13.0189523,77.7045594,"https://www.google.com/maps/place/Arsis+Green+Hills/@13.0189523,77.7045594,17z/data=!3m1!4b1!4m6!3m5!1s0x3bae11004a75e961:0xbb3da75e809572f1!8m2!3d13.0189471!4d77.7071343!16s%2Fg%2F11y42_glxz?entry=ttu&g_ep=EgoyMDI0MTEwNi4wIKXMDSoASAFQAw%3D%3D",K R Puram
Skanda Lake Front,12.8985467,77.5624357,"https://www.google.com/maps/place/Skanda+Lakefront/@12.8985467,77.5624357,17z/data=!3m1!4b1!4m6!3m5!1s0x3bae15e0b1cc6ae1:0xdf5ab40dcdba1da1!8m2!3d12.8985415!4d77.5650106!16s%2Fg%2F1thxp281?entry=ttu&g_ep=EgoyMDI0MTEwNi4wIKXMDSoASAFQAw%3D%3D",Uttarahalli
Purva Bluebelle,12.975358,77.553132,"https://www.google.com/maps/place/Purva+Blubelle/@12.975358,77.553132,17z/data=!3m1!4b1!4m6!3m5!1s0x3bae3def62ee52b9:0xa15527cfc7a50ade!8m2!3d12.9753528!4d77.5557069!16s%2Fg%2F11sk9k689r?entry=ttu&g_ep=EgoyMDI0MTEwNi4wIKXMDSoASAFQAw%3D%3D",No matching micromarket
ARK Oak Tree,12.9842451,77.7617629,"https://www.google.com/maps/place/Ark+Oak+Tree/@12.9842451,77.7617629,17z/data=!3m1!4b1!4m6!3m5!1s0x3bae0f9481b59693:0x243f6927b744f4e0!8m2!3d12.9842399!4d77.7643378!16s%2Fg%2F11s1y1k6jt?entry=ttu&g_ep=EgoyMDI0MTEwNi4wIKXMDSoASAFQAw%3D%3D",Kadugodi
Sobha Insignia,12.9276144,77.6923715,"https://www.google.com/maps/place/SOBHA+Insignia/@12.9276144,77.6923715,17z/data=!3m1!4b1!4m6!3m5!1s0x3bae13d17d1d7545:0x1f9e2058731d2d81!8m2!3d12.9276092!4d77.6949464!16s%2Fg%2F11s_vs7y3r?entry=ttu&g_ep=EgoyMDI0MTEwNi4wIKXMDSoASAFQAw%3D%3D",Kadubeesanahalli
Nature Nxt,12.8739521,77.8094039,"https://www.google.com/maps/place/NatureNxt/@12.8739521,77.8094039,17z/data=!3m1!4b1!4m6!3m5!1s0x3bae73ac20d8c91d:0x47a4afa8fc957e9d!8m2!3d12.8739469!4d77.8119788!16s%2Fg%2F11shl019hy?entry=ttu&g_ep=EgoyMDI0MTEwNi4wIKXMDSoASAFQAw%3D%3D",Sarjapura
Casagrand Hazen,12.8636912,77.5923411,"https://www.google.com/maps/place/Casagrand+Hazen/@12.8636912,77.5923411,17z/data=!3m1!4b1!4m6!3m5!1s0x3bae6b4d7c736293:0xf46e7f952ea810aa!8m2!3d12.863686!4d77.594916!16s%2Fg%2F11s4x00lvn?entry=ttu&g_ep=EgoyMDI0MTEwNi4wIKXMDSoASAFQAw%3D%3D",Akshayanagar
Sound of Water,12.8511931,77.6019311,"https://www.google.com/maps/place/Puravankara+The+Sound+of+Water/@12.8511931,77.6019311,17z/data=!3m1!4b1!4m6!3m5!1s0x3bae6a69e866c41b:0x7d68e6ee355bd0c3!8m2!3d12.8511879!4d77.604506!16s%2Fg%2F11crzz0fz1?entry=ttu&g_ep=EgoyMDI0MTEwNi4wIKXMDSoASAFQAw%3D%3D",Akshayanagar
Engrace Vista,12.8636779,77.7569359,"https://www.google.com/maps/place/Engrace+Vista+by+Modern+Spaaces/@12.8636779,77.7569359,17z/data=!3m1!4b1!4m6!3m5!1s0x3bae732cd881a9cd:0x966081e82b05e6e6!8m2!3d12.8636727!4d77.7595108!16s%2Fg%2F11vc5_dh47?entry=ttu&g_ep=EgoyMDI0MTEwNi4wIKXMDSoASAFQAw%3D%3D",Sarjapura
Sobha Brooklyn Towers Town Park,12.7868564,77.7416841,"https://www.google.com/maps/place/SOBHA+Brooklyn+Towers+-+Townpark/@12.7868564,77.7416841,17z/data=!3m1!4b1!4m6!3m5!1s0x3bae71c8774a37e9:0x8a52dffee1cfe4a4!8m2!3d12.7868512!4d77.744259!16s%2Fg%2F11rhnrhn_v?entry=ttu&g_ep=EgoyMDI0MTEwNi4wIKXMDSoASAFQAw%3D%3D",Attibele
The Grand Strand Address,12.9891499,77.7230885,"https://www.google.com/maps/place/The+Grand+Strand+Address/@12.9891499,77.7230885,17z/data=!3m1!4b1!4m6!3m5!1s0x3bae118c90f24639:0x7ddbddec6f825142!8m2!3d12.9891447!4d77.7256634!16s%2Fg%2F11v3xkd9dp?entry=ttu&g_ep=EgoyMDI0MTEwNi4wIKXMDSoASAFQAw%3D%3D",Hudi
Sobha Infinia,12.9248688,77.6468536,"https://www.google.com/maps/place/SOBHA+Infinia/@12.9248688,77.6468536,17z/data=!3m1!4b1!4m6!3m5!1s0x3bae155bd7291f73:0x7ff5a18f7f13b99a!8m2!3d12.9248636!4d77.6494285!16s%2Fg%2F11fn622cxl?entry=ttu&g_ep=EgoyMDI0MTEwNi4wIKXMDSoASAFQAw%3D%3D",Agaram
Visista By Vista Spaces Okas,13.0807111,77.5885887,"https://www.google.com/maps/place/VISISTA+by+Vista+Spaces+%7C+Okas/@13.0807111,77.5885887,17z/data=!3m1!4b1!4m6!3m5!1s0x3bae19990dd1b27d:0xc42f93dd7342d4bd!8m2!3d13.0807059!4d77.5911636!16s%2Fg%2F11t46pdhqs?entry=ttu&g_ep=EgoyMDI0MTEwNi4wIKXMDSoASAFQAw%3D%3D",Yelahanka Satellite Town
Klassik Landmark,12.8960367,77.6752553,"https://www.google.com/maps/place/Klassik+Landmark/@12.8960367,77.6752553,17z/data=!3m1!4b1!4m6!3m5!1s0x3bae1338945faadd:0x59d10c45447ba02a!8m2!3d12.8960315!4d77.6778302!16s%2Fg%2F12lkycqyn?entry=ttu&g_ep=EgoyMDI0MTEwNi4wIKXMDSoASAFQAw%3D%3D",Kasvanahalli
Forest in my Backyard,13.2390236,77.5980781,"https://www.google.com/maps/place/Forest+in+My+Backyard+FIMB+Villa+Plots+in+North+Bangalore/@13.2390236,77.5980781,17z/data=!3m1!4b1!4m6!3m5!1s0x3bae1d489d087a4b:0x72187c5bfa2c767f!8m2!3d13.2390184!4d77.600653!16s%2Fg%2F11k4fscrj6?entry=ttu&g_ep=EgoyMDI0MTEwNi4wIKXMDSoASAFQAw%3D%3D",Devanahalli
JRC Wild Woods,12.8789308,77.688084,"https://www.google.com/maps/place/JRC+Wild+Woods/@12.8789308,77.688084,17z/data=!3m1!4b1!4m6!3m5!1s0x3bae6d3e775dbe87:0x47e5da5c49b64c09!8m2!3d12.8789256!4d77.6906589!16s%2Fg%2F11sbzqgnt4?entry=ttu&g_ep=EgoyMDI0MTEwNi4wIKXMDSoASAFQAw%3D%3D",Gattahalli
Cielo at Brigade Valencia,12.8022332,77.6948371,"https://www.google.com/maps/place/Cielo+at+Brigade+Valencia/@12.8022332,77.6948371,17z/data=!3m1!4b1!4m6!3m5!1s0x3bae6d000c112bd5:0x77542b64d10e7b66!8m2!3d12.802228!4d77.697412!16s%2Fg%2F11wppl68bg?entry=ttu&g_ep=EgoyMDI0MTEwNi4wIKXMDSoASAFQAw%3D%3D",Bommasandra
KNS Fresco,13.2242853,77.535388,"https://www.google.com/maps/place/KNS+Fresco/@13.2242853,77.535388,17z/data=!3m1!4b1!4m6!3m5!1s0x3bae21ed2909e3bf:0xf0d07d57a48227fa!8m2!3d13.2242801!4d77.5379629!16s%2Fg%2F11kqr0sq_s?entry=ttu&g_ep=EgoyMDI0MTEwNi4wIKXMDSoASAFQAw%3D%3D",Doddaballapura
Godrej Ananda,13.1475339,77.675041,"https://www.google.com/maps/place/Godrej+Ananda,+Bangalore/@13.1475339,77.675041,17z/data=!3m1!4b1!4m6!3m5!1s0x3bae1b413aeea35b:0x20035784b271ee37!8m2!3d13.1475287!4d77.6776159!16s%2Fg%2F11r5rsq10l?entry=ttu&g_ep=EgoyMDI0MTEwNi4wIKXMDSoASAFQAw%3D%3D",KIADB Park
Sattva Springs,12.8184879,77.5132636,"https://www.google.com/maps/place/SATTVA+SPRINGS/@12.8184879,77.5132636,17z/data=!3m1!4b1!4m6!3m5!1s0x3bae4100656ade8b:0xc2bb9b7a49219a94!8m2!3d12.8184827!4d77.5158385!16s%2Fg%2F11y3wlp4n0?entry=ttu&g_ep=EgoyMDI0MTEwNi4wIKXMDSoASAFQAw%3D%3D",Kaggalipura
Assetz Promise of Spring,13.2889823,77.7212724,"https://www.google.com/maps/place/Assetz+Promise+of+Spring/@13.2889823,77.7212724,17z/data=!3m1!4b1!4m6!3m5!1s0x3bb1e3003a9fcaf5:0x1be9ad1be464d069!8m2!3d13.2889771!4d77.7238473!16s%2Fg%2F11vzgjpwhp?entry=ttu&g_ep=EgoyMDI0MTEwNi4wIKXMDSoASAFQAw%3D%3D",Devanahalli
Godrej Park Retreat,12.8935306,77.7022797,"https://www.google.com/maps/place/Godrej+Park+Retreat,+Bangalore/@12.8935306,77.7022797,17z/data=!3m1!4b1!4m6!3m5!1s0x3bae13fc158cf447:0x441ed34a9d1d173e!8m2!3d12.8935254!4d77.7048546!16s%2Fg%2F11p5zk89gz?entry=ttu&g_ep=EgoyMDI0MTEwNi4wIKXMDSoASAFQAw%3D%3D",Chikkakannalli
Total Environment In That Quiet Earth,13.0861158,77.6368993,"https://www.google.com/maps/search/Total+Environment+In+That+Quiet+Earth,+Bengaluru,+Karnataka,+India/@13.0861158,77.6368993,13z/data=!3m1!4b1?entry=ttu&g_ep=EgoyMDI0MTEwNi4wIKXMDSoASAFQAw%3D%3D",Yelahanka
DS Max Sahara,12.8659155,77.6912266,"https://www.google.com/maps/place/DS+Max+SAHARA/@12.8659155,77.6912266,17z/data=!3m1!4b1!4m6!3m5!1s0x3bae6d37e89aa3df:0x44ee9a8c3432bbe!8m2!3d12.8659103!4d77.6938015!16s%2Fg%2F11mjqsr3r3?entry=ttu&g_ep=EgoyMDI0MTEwNi4wIKXMDSoASAFQAw%3D%3D",Gulimangala
Flowing Tree,13.0901633,77.5819341,"https://www.google.com/maps/place/Flowing+Tree/@13.0901633,77.5819341,17z/data=!3m1!4b1!4m6!3m5!1s0x3bae198a32f47fbd:0x40f3af007a7cf5c4!8m2!3d13.0901581!4d77.584509!16s%2Fg%2F11h07n5sw8?entry=ttu&g_ep=EgoyMDI0MTEwNi4wIKXMDSoASAFQAw%3D%3D",Yelahanka Satellite Town
Embassy East Avenue,12.988764,77.7251544,"https://www.google.com/maps/place/Embassy+East+Avenue/@12.988764,77.7251544,17z/data=!3m1!4b1!4m6!3m5!1s0x3bae11006ef0e301:0xd0a03de301166e65!8m2!3d12.9887588!4d77.7277293!16s%2Fg%2F11vr96hynf?entry=ttu&g_ep=EgoyMDI0MTEwNi4wIKXMDSoASAFQAw%3D%3D",Hudi
ARS Signaturehomes,12.86529,77.7722286,"https://www.google.com/maps/place/ARS+Signature+Homes/@12.86529,77.7722286,17z/data=!3m1!4b1!4m6!3m5!1s0x3bae73bc62440c9d:0x757572f2918546e4!8m2!3d12.8652848!4d77.7748035!16s%2Fg%2F11pyr_fc8c?entry=ttu&g_ep=EgoyMDI0MTEwNi4wIKXMDSoASAFQAw%3D%3D",Sarjapura
Century Trails,13.2789236,77.6762662,"https://www.google.com/maps/place/Century+Trails/@13.2789236,77.6762662,17z/data=!3m1!4b1!4m6!3m5!1s0x3bb1e3005489e3f9:0xe851394fd12a7dc0!8m2!3d13.2789184!4d77.6788411!16s%2Fg%2F11vqj82lb4?entry=ttu&g_ep=EgoyMDI0MTEwNi4wIKXMDSoASAFQAw%3D%3D",Devanahalli
Assetz Inspira Melodies of Life,13.0313105,77.4626458,"https://www.google.com/maps/search/Assetz+Inspira+Melodies+of+Life,+Bengaluru,+Karnataka,+India/@13.0313105,77.4626458,11z/data=!3m1!4b1?entry=ttu&g_ep=EgoyMDI0MTEwNi4wIKXMDSoASAFQAw%3D%3D",Lakshmipura
Prestige Lavender Fields,12.9344677,77.7368362,"https://www.google.com/maps/place/Prestige+Lavender+Fields/@12.9344677,77.7368362,17z/data=!3m1!4b1!4m6!3m5!1s0x3bae1368da148d67:0x59fc563946ec4be7!8m2!3d12.9344625!4d77.7394111!16s%2Fg%2F11t27nklr_?entry=ttu&g_ep=EgoyMDI0MTEwNi4wIKXMDSoASAFQAw%3D%3D",Varthur
DS Max SASMARA,13.0518819,77.5668404,"https://www.google.com/maps/place/DS-MAX+SASMARA%2F%E0%B2%A1%E0%B2%BF.%E0%B2%8E%E0%B2%B8%E0%B3%8D+%E0%B2%AE%E0%B3%8D%E0%B2%AF%E0%B2%BE%E0%B2%95%E0%B3%8D%E0%B2%B8%E0%B3%8D+%E0%B2%B8%E0%B2%B8%E0%B3%8D%E0%B2%AE%E0%B2%BE%E0%B2%B0/@13.0518819,77.5668404,17z/data=!3m1!4b1!4m6!3m5!1s0x3bae178add44f601:0xae7d7eae4ef75779!8m2!3d13.0518767!4d77.5694153!16s%2Fg%2F11r57w62pw?entry=ttu&g_ep=EgoyMDI0MTEwNi4wIKXMDSoASAFQAw%3D%3D",Vidyaranyapura
SLN Nidhi Palms,13.0660643,77.7271047,"https://www.google.com/maps/place/SLN+Nidhi+Palms/@13.0660643,77.7271047,17z/data=!3m1!4b1!4m6!3m5!1s0x3bae1bbef2428b8d:0x4781c340643b2293!8m2!3d13.0660591!4d77.7296796!16s%2Fg%2F11txfrwwwz?entry=ttu&g_ep=EgoyMDI0MTEwNi4wIKXMDSoASAFQAw%3D%3D",Cheemasandra
Nikoo Homes VI,13.0925566,77.6067191,"https://www.google.com/maps/search/Nikoo+Homes+VI,+Bengaluru,+Karnataka,+India/@13.0925566,77.6067191,14z/data=!3m1!4b1?entry=ttu&g_ep=EgoyMDI0MTEwNi4wIKXMDSoASAFQAw%3D%3D",Jakkur
Coco Aldea Rivatani,13.2797087,77.7201521,"https://www.google.com/maps/place/BVL+Coco+Aldea/@13.2797087,77.7201521,17z/data=!3m1!4b1!4m6!3m5!1s0x3bb1e2db1bf28dff:0xb81de050a5671706!8m2!3d13.2797035!4d77.722727!16s%2Fg%2F1pxwbp8ww?entry=ttu&g_ep=EgoyMDI0MTEwNi4wIKXMDSoASAFQAw%3D%3D",Devanahalli
Kumar Prospera,13.0431813,77.6394327,"https://www.google.com/maps/place/Kumar+Prospera/@13.0431813,77.6394327,17z/data=!3m1!4b1!4m6!3m5!1s0x3bae172e73806245:0x70bfa7985be73cdb!8m2!3d13.0431761!4d77.6420076!16s%2Fg%2F11hy_8vstf?entry=ttu&g_ep=EgoyMDI0MTEwNi4wIKXMDSoASAFQAw%3D%3D",Hennur
Icon Central Park,13.0483802,77.6220557,"https://www.google.com/maps/place/Gcorp+the+Icon+-+Central+Garden+and+Playground/@13.0483802,77.6220557,17z/data=!3m1!4b1!4m6!3m5!1s0x3bae17326d82a613:0x82ee57cfc5b9957e!8m2!3d13.048375!4d77.6246306!16s%2Fg%2F11rxpb796g?entry=ttu&g_ep=EgoyMDI0MTEwNi4wIKXMDSoASAFQAw%3D%3D",Nagavara
Shriram Green Field,13.0712014,77.7502994,"https://www.google.com/maps/search/Shriram+Green+Field,+Bengaluru,+Karnataka,+India/@13.0712014,77.7502994,18z/data=!3m1!4b1?entry=ttu&g_ep=EgoyMDI0MTEwNi4wIKXMDSoASAFQAw%3D%3D",Budigere Cross
SKAV Grande,12.9720022,77.7475891,"https://www.google.com/maps/place/SKAV+Grande/@12.9720022,77.7475891,17z/data=!3m1!4b1!4m6!3m5!1s0x3bae0dfe674d504d:0x36c5aafe9e942488!8m2!3d12.971997!4d77.750164!16s%2Fg%2F1pp2xb36w?entry=ttu&g_ep=EgoyMDI0MTEwNi4wIKXMDSoASAFQAw%3D%3D",White Field
Garuda Grand,12.9991149,77.719781,"https://www.google.com/maps/place/Garuda+Grand/@12.9991149,77.719781,17z/data=!3m1!4b1!4m6!3m5!1s0x3bae1140660131f7:0xb2963f75fd9209f!8m2!3d12.9991097!4d77.7223559!16s%2Fg%2F11kb1kz5cx?entry=ttu&g_ep=EgoyMDI0MTEwNi4wIKXMDSoASAFQAw%3D%3D",Sadaramangala
Equinox Sunrise,13.2300156,77.7245231,"https://www.google.com/maps/place/EQUINOX+SUNRISE/@13.2300156,77.7245231,17z/data=!3m1!4b1!4m6!3m5!1s0x3bae1d147f44ac47:0xb132620681633533!8m2!3d13.2300104!4d77.727098!16s%2Fg%2F11vjpw1wjr?entry=ttu&g_ep=EgoyMDI0MTEwNi4wIKXMDSoASAFQAw%3D%3D",Devanahalli
Orchids Salisbury,13.0171858,77.5206035,"https://www.google.com/maps/search/Orchids+Salisbury,+Bengaluru,+Karnataka,+India/@13.0171858,77.5206035,12z/data=!3m1!4b1?entry=ttu&g_ep=EgoyMDI0MTEwNi4wIKXMDSoASAFQAw%3D%3D",Peenya Industrial Area
Embassy Springs,13.2026223,77.6215625,"https://www.google.com/maps/place/Embassy+Springs,+MSEC+Rd,+Navarathna+Agrahara,+Karnataka+562157/@13.2026223,77.6215625,17z/data=!3m1!4b1!4m6!3m5!1s0x3bae1e5b7f344b7b:0xa45981e90accd8ed!8m2!3d13.2026171!4d77.6241374!16s%2Fg%2F11cr_0qr84?entry=ttu&g_ep=EgoyMDI0MTEwNi4wIKXMDSoASAFQAw%3D%3D",Devanahalli
KNS Athena ,13.1100333,77.4473611,"https://www.google.com/maps/place/KNS+Athena/@13.1100333,77.4473611,17z/data=!3m1!4b1!4m6!3m5!1s0x3bae2515e86ddb17:0xf962da85a045ce5d!8m2!3d13.1100281!4d77.449936!16s%2Fg%2F11kcl0yw44?entry=ttu&g_ep=EgoyMDI0MTEwNi4wIKXMDSoASAFQAw%3D%3D",Vaderahalli
Sobha Rajvilas,12.9787123,77.5611478,"https://www.google.com/maps/place/SOBHA+Rajvilas/@12.9787123,77.5611478,17z/data=!3m1!4b1!4m6!3m5!1s0x3bae1727c62afb9b:0x5715ad074b9bb0ac!8m2!3d12.9787071!4d77.5637227!16s%2Fg%2F11ffg5n7n8?entry=ttu&g_ep=EgoyMDI0MTEwNi4wIKXMDSoASAFQAw%3D%3D",Rajajinagar
Elite Serenity,13.0382461,77.6293325,"https://www.google.com/maps/place/Elite+Serenity/@13.0382461,77.6293325,17z/data=!3m1!4b1!4m6!3m5!1s0x3bae17000fdafec9:0xc1765f530526cdcf!8m2!3d13.0382409!4d77.6319074!16s%2Fg%2F11w9nmgvg_?entry=ttu&g_ep=EgoyMDI0MTEwNi4wIKXMDSoASAFQAw%3D%3D",Hennur
Concorde Abode 99,12.8266958,77.7166517,"https://www.google.com/maps/place/Concorde+Abode+99/@12.8266958,77.7166517,17z/data=!3m1!4b1!4m6!3m5!1s0x3bae6dff9c6345c9:0x277e0e5afc2fc786!8m2!3d12.8266906!4d77.7192266!16s%2Fg%2F11k_c1wn49?entry=ttu&g_ep=EgoyMDI0MTEwNi4wIKXMDSoASAFQAw%3D%3D",Bommasandra
RR Wish Tales,13.0765253,77.6023524,"https://www.google.com/maps/place/RR+WishTales/@13.0765253,77.6023524,17z/data=!3m1!4b1!4m6!3m5!1s0x3bae1970da1f427d:0x4b0fbddd93f55e01!8m2!3d13.0765201!4d77.6049273!16s%2Fg%2F11vbjb0pp1?entry=ttu&g_ep=EgoyMDI0MTEwNi4wIKXMDSoASAFQAw%3D%3D",Jakkur
L&T Olivia At Raintree Boulevard,13.069606,77.5877334,"https://www.google.com/maps/search/L%26T+Olivia+At+Raintree+Boulevard,+Bengaluru,+Karnataka,+India/@13.069606,77.5877334,17z/data=!3m1!4b1?entry=ttu&g_ep=EgoyMDI0MTEwNi4wIKXMDSoASAFQAw%3D%3D",Vignana Kendra
Adithya Bliss,12.9004196,77.8039228,"https://www.google.com/maps/place/Aadithya+Bliss+Luxury+Villas/@12.9004196,77.8039228,17z/data=!3m1!4b1!4m6!3m5!1s0x3bae0da8781e1ff5:0x90e96ff877b6375e!8m2!3d12.9004144!4d77.8064977!16s%2Fg%2F11vbrmjv5h?entry=ttu&g_ep=EgoyMDI0MTEwNi4wIKXMDSoASAFQAw%3D%3D",Neriga
Pride Euphoria,13.0208272,77.7088041,"https://www.google.com/maps/place/Pride+Euphora/@13.0208272,77.7088041,17z/data=!3m1!4b1!4m6!3m5!1s0x3bae11abcb5b16a7:0xdc4e806fed55b47d!8m2!3d13.020822!4d77.711379!16s%2Fg%2F11l1m2y43z?entry=ttu&g_ep=EgoyMDI0MTEwNi4wIKXMDSoASAFQAw%3D%3D",K R Puram
Azur,13.0295878,77.5380368,"https://www.google.com/maps/place/Azure/@13.0295878,77.5380368,17z/data=!3m1!4b1!4m6!3m5!1s0x3bae3d6b19039947:0x5a468194247c67ce!8m2!3d13.0295826!4d77.5406117!16s%2Fg%2F1263pd52f?entry=ttu&g_ep=EgoyMDI0MTEwNi4wIKXMDSoASAFQAw%3D%3D",Yeshwantpur
Valmark Orchards,13.048529,77.4903435,"https://www.google.com/maps/search/Valmark+Orchards,+Bengaluru,+Karnataka,+India/@13.048529,77.4903435,11z/data=!3m1!4b1?entry=ttu&g_ep=EgoyMDI0MTEwNi4wIKXMDSoASAFQAw%3D%3D",Nagasandra
Godrej Woodscapes,13.0491927,77.749247,"https://www.google.com/maps/place/Godrej+Woodscapes,+Whitefield,+Bangalore/@13.0491927,77.749247,17z/data=!3m1!4b1!4m6!3m5!1s0x3bae0f6cf5ad3bed:0xc7a238bcd3a48ce9!8m2!3d13.0491875!4d77.7518219!16s%2Fg%2F11vlnygd9l?entry=ttu&g_ep=EgoyMDI0MTEwNi4wIKXMDSoASAFQAw%3D%3D",Nimbekaipura
Navami Chamara Heights,12.9515614,77.4830528,"https://www.google.com/maps/place/Navami+Chamara+Heights/@12.9515614,77.4830528,17z/data=!3m1!4b1!4m6!3m5!1s0x3bae3f5ada2ba30f:0x28fcc27b5f28fa75!8m2!3d12.9515562!4d77.4856277!16s%2Fg%2F11sw15fbnp?entry=ttu&g_ep=EgoyMDI0MTEwNi4wIKXMDSoASAFQAw%3D%3D",Nagarabhavi
Shriram Esquire,12.9302424,77.6333812,"https://www.google.com/maps/place/Shriram+Esquire+near+dmart/@12.9302424,77.6333812,17z/data=!3m1!4b1!4m6!3m5!1s0x3bae153f3cb48757:0xe38712bfd1ce4da4!8m2!3d12.9302372!4d77.6359561!16s%2Fg%2F11srgjwz_m?entry=ttu&g_ep=EgoyMDI0MTEwNi4wIKXMDSoASAFQAw%3D%3D",Koramangala
SNN Estates Felicity,13.0677758,77.6202951,"https://www.google.com/maps/place/SNN+Estates+Felicity+-+Luxury+Premium+Condos+%26+Luxury+Studio+-+Apartment/@13.0677758,77.6202951,17z/data=!3m1!4b1!4m6!3m5!1s0x3bae19efdbf80065:0x2ac57fa720e07b0b!8m2!3d13.0677706!4d77.62287!16s%2Fg%2F11k3pxhl0f?entry=ttu&g_ep=EgoyMDI0MTEwNi4wIKXMDSoASAFQAw%3D%3D",Jakkur
Royal Tulip,12.8697875,77.8153456,"https://www.google.com/maps/place/ROYAL+TULIP+VILLAS+by+WHITEHILL/@12.8697875,77.8153456,17z/data=!3m1!4b1!4m6!3m5!1s0x3bae737c2beb8a55:0xaa2b3b64b1bcbd09!8m2!3d12.8697823!4d77.8179205!16s%2Fg%2F11qt0z5vz6?entry=ttu&g_ep=EgoyMDI0MTEwNi4wIKXMDSoASAFQAw%3D%3D",Sarjapura
Sattva La Vitta,13.080651,77.6484078,"https://www.google.com/maps/place/Sattva+La+Vita/@13.080651,77.6484078,17z/data=!3m1!4b1!4m6!3m5!1s0x3bae199850385493:0xff5777a50773b9a!8m2!3d13.0806458!4d77.6509827!16s%2Fg%2F11vlwhjwy1?entry=ttu&g_ep=EgoyMDI0MTEwNi4wIKXMDSoASAFQAw%3D%3D",Kannuru
Casagrand Keatsway,13.0492219,77.6356155,"https://www.google.com/maps/place/Casagrand+Keatsway/@13.0492219,77.6356155,17z/data=!3m1!4b1!4m6!3m5!1s0x3bae1746c20cf9f5:0xf2b1063d2d306116!8m2!3d13.0492167!4d77.6381904!16s%2Fg%2F11k45qxx6n?entry=ttu&g_ep=EgoyMDI0MTEwNi4wIKXMDSoASAFQAw%3D%3D",Thanisandra
KNS Laurel,12.8956352,77.8090262,"https://www.google.com/maps/place/KNS+Laurel/@12.8956352,77.8090262,17z/data=!3m1!4b1!4m6!3m5!1s0x3bae0d8f3ab365cf:0x7fc025e16135878d!8m2!3d12.89563!4d77.8116011!16s%2Fg%2F11khzk8751?entry=ttu&g_ep=EgoyMDI0MTEwNi4wIKXMDSoASAFQAw%3D%3D",Neriga
Disha- Pursuit of Sunshine,13.0664853,77.7349569,"https://www.google.com/maps/place/Disha+Pursuit+of+Sunshine/@13.0664853,77.7349569,17z/data=!3m1!4b1!4m6!3m5!1s0x3bae1b5b6fc5377f:0x3ae57ba2d136ae5d!8m2!3d13.0664801!4d77.7375318!16s%2Fg%2F11tt43_1tw?entry=ttu&g_ep=EgoyMDI0MTEwNi4wIKXMDSoASAFQAw%3D%3D",Mandur
SVB Maplewoods,12.9257269,77.7813031,"https://www.google.com/maps/place/SVB+MAPLE+WOODS/@12.9257269,77.7813031,17z/data=!3m1!4b1!4m6!3m5!1s0x3bae0d2df73983f5:0x2de0237727daa4f0!8m2!3d12.9257217!4d77.783878!16s%2Fg%2F11l38_7855?entry=ttu&g_ep=EgoyMDI0MTEwNi4wIKXMDSoASAFQAw%3D%3D",Neriga
Vaishnavi Serene,13.1245927,77.5651282,"https://www.google.com/maps/place/Vaishnavi+Serene/@13.1245927,77.5651282,17z/data=!3m1!4b1!4m6!3m5!1s0x3bae189f56227a25:0x50a25c38d758ef2a!8m2!3d13.1245875!4d77.5677031!16s%2Fg%2F11f3n9hrw4?entry=ttu&g_ep=EgoyMDI0MTEwNi4wIKXMDSoASAFQAw%3D%3D",Bylakere
Mahendra Arto Helix,12.819914,77.6564829,"https://www.google.com/maps/place/Mahendra+Arto+Helix/@12.819914,77.6564829,17z/data=!3m1!4b1!4m6!3m5!1s0x3bae6d37d3603d17:0xb9774e5292df9028!8m2!3d12.8199088!4d77.6590578!16s%2Fg%2F11krn0fdvn?entry=ttu&g_ep=EgoyMDI0MTEwNi4wIKXMDSoASAFQAw%3D%3D",Bommasandra
Gopalan Florenza,12.8991415,77.5082217,"https://www.google.com/maps/place/Gopalan+Florenza/@12.8991415,77.5082217,17z/data=!3m1!4b1!4m6!3m5!1s0x3bae3f0c40c7a169:0xc4c3c4a3dffc9d96!8m2!3d12.8991363!4d77.5107966!16s%2Fg%2F11f_kp9n4s?entry=ttu&g_ep=EgoyMDI0MTEwNi4wIKXMDSoASAFQAw%3D%3D",Banashankari 6th Stage
Suraksha Spring,12.8624163,77.6122756,"https://www.google.com/maps/place/Suraksha+Springs/@12.8624163,77.6122756,17z/data=!3m1!4b1!4m6!3m5!1s0x3bae6b0e8ca572d1:0x193a99119463a09b!8m2!3d12.8624111!4d77.6148505!16s%2Fg%2F11v02vmysj?entry=ttu&g_ep=EgoyMDI0MTEwNi4wIKXMDSoASAFQAw%3D%3D",Akshayanagar
SSVR Crescent,12.9695495,77.7682862,"https://www.google.com/maps/place/SSVR+Crescent/@12.9695495,77.7682862,17z/data=!3m1!4b1!4m6!3m5!1s0x3bae0df385e167eb:0x5df112c96ec2d984!8m2!3d12.9695443!4d77.7708611!16s%2Fg%2F11ry5xtt8c?entry=ttu&g_ep=EgoyMDI0MTEwNi4wIKXMDSoASAFQAw%3D%3D",White Field
Abhee Shristi Layout,12.6933379,77.7012618,"https://www.google.com/maps/place/Abhee+Srishti/@12.6933379,77.7012618,17z/data=!3m1!4b1!4m6!3m5!1s0x3bae65a20f97c13f:0x718e6033a2bfbba8!8m2!3d12.6933327!4d77.7038367!16s%2Fg%2F11sjvrx1jg?entry=ttu&g_ep=EgoyMDI0MTEwNi4wIKXMDSoASAFQAw%3D%3D",Anekal
Arvind Bel Air,13.093812,77.558085,"https://www.google.com/maps/place/Arvind+Bel+Air/@13.093812,77.558085,17z/data=!3m1!4b1!4m6!3m5!1s0x3bae23b66ff95893:0x8d63e60d57f0fe62!8m2!3d13.0938068!4d77.5606599!16s%2Fg%2F11p0zpq3ky?entry=ttu&g_ep=EgoyMDI0MTEwNi4wIKXMDSoASAFQAw%3D%3D",Bylakere
Oceanus White Meadows,12.8536599,77.572457,"https://www.google.com/maps/place/Oceanus+White+Meadows/@12.8536599,77.572457,17z/data=!3m1!4b1!4m6!3m5!1s0xab11a015e7fe52f3:0x319b85b06ab35718!8m2!3d12.8536547!4d77.5750319!16s%2Fg%2F11kqxkxbvg?entry=ttu&g_ep=EgoyMDI0MTEwNi4wIKXMDSoASAFQAw%3D%3D",Anjanapura
Nitesh Napa Valley,13.1217835,77.6001424,"https://www.google.com/maps/place/Nitesh+Napa+Valley,+w,+NITTE+Meenakshi+College+Rd,+BSF+Campus,+Yelahanka,+Bengaluru,+Karnataka+560064/@13.1217835,77.6001424,17z/data=!3m1!4b1!4m6!3m5!1s0x3bae18e137922b29:0x3a9120e893a3160b!8m2!3d13.1217783!4d77.6027173!16s%2Fg%2F12xqksl0l?entry=ttu&g_ep=EgoyMDI0MTEwNi4wIKXMDSoASAFQAw%3D%3D",Yelahanka
Godrej Reserve,13.2689812,77.6673683,"https://www.google.com/maps/place/Godrej+Reserve,+Bangalore/@13.2689812,77.6673683,17z/data=!3m1!4b1!4m6!3m5!1s0x3bb1e35eb7423977:0x9a29c230d6f62fb9!8m2!3d13.268976!4d77.6699432!16s%2Fg%2F11fjyvglxr?entry=ttu&g_ep=EgoyMDI0MTEwNi4wIKXMDSoASAFQAw%3D%3D",Devanahalli
Assetz Sun & Sanctum,13.021543,77.7031491,"https://www.google.com/maps/place/Assetz+Sun+%26+Sanctum/@13.021543,77.7031491,17z/data=!3m1!4b1!4m6!3m5!1s0x3bae11497ecf6bf9:0x8e1344a990a20e4e!8m2!3d13.0215378!4d77.705724!16s%2Fg%2F11fhr026qb?entry=ttu&g_ep=EgoyMDI0MTEwNi4wIKXMDSoASAFQAw%3D%3D",K R Puram
Suraksha Heritage Park,12.8694767,77.6198509,"https://www.google.com/maps/place/Suraksha+Heritage+Park/@12.8694767,77.6198509,17z/data=!3m1!4b1!4m6!3m5!1s0x3bae6b7949b28b51:0xff5ae85bfd350ebe!8m2!3d12.8694715!4d77.6224258!16s%2Fg%2F11nxqyjyc7?entry=ttu&g_ep=EgoyMDI0MTEwNi4wIKXMDSoASAFQAw%3D%3D",Akshayanagar
Purva Kensho Hills,12.8329951,77.7927037,"https://www.google.com/maps/place/Purva+Kensho+Hills/@12.8329951,77.7927037,17z/data=!3m1!4b1!4m6!3m5!1s0x3bae7345be061fbb:0x3dec05e10889e30e!8m2!3d12.8329899!4d77.7952786!16s%2Fg%2F11vm3mkkcn?entry=ttu&g_ep=EgoyMDI0MTEwNi4wIKXMDSoASAFQAw%3D%3D",Byalahalli
Brigade Gem,12.8942331,77.6914624,"https://www.google.com/maps/place/Brigade+Gem/@12.8942331,77.6914624,17z/data=!3m1!4b1!4m6!3m5!1s0x3bae13ca77eef95d:0xd5b839b165d33506!8m2!3d12.8942279!4d77.6940373!16s%2Fg%2F11mpcgbsf0?entry=ttu&g_ep=EgoyMDI0MTEwNi4wIKXMDSoASAFQAw%3D%3D",Doddakannelli
Sai Green Woods,12.9931515,77.670933,"https://www.google.com/maps/search/Sai+Green+Woods,+Bengaluru,+Karnataka,+India/@12.9931515,77.670933,13z/data=!3m1!4b1?entry=ttu&g_ep=EgoyMDI0MTEwNi4wIKXMDSoASAFQAw%3D%3D",A. Narayanapura
Cardinal One,13.0275377,77.5391309,"https://www.google.com/maps/place/Cardinal+One+%7C+3+and+4+BHK+Ultra+Private+Homes+in+Yeshwanthpur,+Bangalore/@13.0275377,77.5391309,17z/data=!3m1!4b1!4m6!3m5!1s0x3bae3d9ee31ef55d:0x1a618a610eb13cf2!8m2!3d13.0275325!4d77.5417058!16s%2Fg%2F11fl3yb20y?entry=ttu&g_ep=EgoyMDI0MTEwNi4wIKXMDSoASAFQAw%3D%3D",Yeshwantpur
The Poem by Shriram Properties,13.0696721,77.5182116,"https://www.google.com/maps/place/The+Poem+by+Shriram+Properties/@13.0696721,77.5182116,17z/data=!3m1!4b1!4m6!3m5!1s0x3bae23e891b9a99b:0x7aa0cdf84d595c!8m2!3d13.0696669!4d77.5207865!16s%2Fg%2F11tt0z17lq?entry=ttu&g_ep=EgoyMDI0MTEwNi4wIKXMDSoASAFQAw%3D%3D",Jalahalli
Arvind Greatlands,12.9084691,77.6363796,"https://www.google.com/maps/place/ARVIND+GREATLANDS/@12.9084691,77.6363796,17z/data=!3m1!4b1!4m6!3m5!1s0x3bae149121bb41dd:0x199c8fec83d75114!8m2!3d12.9084639!4d77.6389545!16s%2Fg%2F11vwtg77fk?entry=ttu&g_ep=EgoyMDI0MTEwNi4wIKXMDSoASAFQAw%3D%3D",HSR Layout
MIMS North Dale,13.0709765,77.6538385,"https://www.google.com/maps/place/MIMS+Northdale+-+Villas+in+Hennur+Road+Bangalore/@13.0709765,77.6538385,17z/data=!3m1!4b1!4m6!3m5!1s0x3bae1b3a2fa4299d:0x5b51525807f1778e!8m2!3d13.0709713!4d77.6564134!16s%2Fg%2F11n1my_xb1?entry=ttu&g_ep=EgoyMDI0MTEwNi4wIKXMDSoASAFQAw%3D%3D",Visthar
Krishna Lakefront,19.72595,60.9754769,"https://www.google.com/maps/search/Krishna+Lakefront,+Bengaluru,+Karnataka,+India/@19.72595,60.9754769,4z/data=!3m1!4b1?entry=ttu&g_ep=EgoyMDI0MTEwNi4wIKXMDSoASAFQAw%3D%3D",No matching micromarket
Maanya Tulip,13.2535531,77.7479308,"https://www.google.com/maps/place/Maanya+Tulips+%7C+Premium+Villa+Plots+in+Devanahalli,+Bangalore+North/@13.2535531,77.7479308,17z/data=!3m1!4b1!4m6!3m5!1s0x3bb1fd76edd4e3f3:0xae2f797bce397916!8m2!3d13.2535479!4d77.7505057!16s%2Fg%2F11vz1tq5f5?entry=ttu&g_ep=EgoyMDI0MTEwNi4wIKXMDSoASAFQAw%3D%3D",Devanahalli
Spectra Parijatha,12.9599913,77.7295223,"https://www.google.com/maps/place/Spectra+Parijatha/@12.9599913,77.7295223,17z/data=!3m1!4b1!4m6!3m5!1s0x3bae139e6fac6499:0x6fcb703697163553!8m2!3d12.9599861!4d77.7320972!16s%2Fg%2F11vhfvfsq4?entry=ttu&g_ep=EgoyMDI0MTEwNi4wIKXMDSoASAFQAw%3D%3D",AECS Layout
Kumari Nautilius,13.002796,77.7838824,"https://www.google.com/maps/place/KUMARI+NAUTILUS+-+Villas+in+Whitefield+Bangalore/@13.002796,77.7838824,17z/data=!3m1!4b1!4m6!3m5!1s0x3bae0fe50a62cea5:0x790b6bfa7f6e4594!8m2!3d13.0027908!4d77.7864573!16s%2Fg%2F11tnwg5c2v?entry=ttu&g_ep=EgoyMDI0MTEwNi4wIKXMDSoASAFQAw%3D%3D",Hoskote
Casagrand Amor,12.8622065,77.6070576,"https://www.google.com/maps/place/Casagrand+Amor/@12.8622065,77.6070576,17z/data=!3m1!4b1!4m6!3m5!1s0x3bae159066066ab3:0x7b8f49ec3986b626!8m2!3d12.8622013!4d77.6096325!16s%2Fg%2F11stx6xf4h?entry=ttu&g_ep=EgoyMDI0MTEwNi4wIKXMDSoASAFQAw%3D%3D",Akshayanagar
Mahaveer Highlands,12.925039,77.4700827,"https://www.google.com/maps/place/Mahaveer+Highlands/@12.925039,77.4700827,17z/data=!3m1!4b1!4m6!3m5!1s0x3bae3f61f087b6bd:0x4337e611f21ffee4!8m2!3d12.9250338!4d77.4726576!16s%2Fg%2F11kj8r2w0j?entry=ttu&g_ep=EgoyMDI0MTEwNi4wIKXMDSoASAFQAw%3D%3D",Gongadipura
Ajmera Lakeside Paradise,13.1098648,77.5569592,"https://www.google.com/maps/place/Ajmera+Lakeside+Paradise/@13.1098648,77.5569592,17z/data=!3m1!4b1!4m6!3m5!1s0x3bae18948e775945:0xb40514c0422829ab!8m2!3d13.1098596!4d77.5595341!16s%2Fg%2F11c6rwkbpl?entry=ttu&g_ep=EgoyMDI0MTEwNi4wIKXMDSoASAFQAw%3D%3D",Bylakere
Guru Punvaanii Eka,12.7007234,77.6975651,"https://www.google.com/maps/search/Guru+Punvaanii+Eka,+Bengaluru,+Karnataka,+India/@12.7007234,77.6975651,15z/data=!3m1!4b1?entry=ttu&g_ep=EgoyMDI0MTEwNi4wIKXMDSoASAFQAw%3D%3D",Anekal
Promont,12.920464,77.5345104,"https://www.google.com/maps/place/The+Promont+Tata+Housing/@12.920464,77.5345104,17z/data=!3m1!4b1!4m6!3m5!1s0x3bae3e396dac39c3:0xde561990cbdac12a!8m2!3d12.9204588!4d77.5370853!16s%2Fg%2F11bw6k37c7?entry=ttu&g_ep=EgoyMDI0MTEwNi4wIKXMDSoASAFQAw%3D%3D",Rajarajeshwari Nagar
Century Wintersun,13.2310376,77.5479424,"https://www.google.com/maps/place/Century+Wintersun/@13.2310376,77.5479424,17z/data=!3m1!4b1!4m6!3m5!1s0x3bae200449743ad3:0xab6f49b194967135!8m2!3d13.2310324!4d77.5505173!16s%2Fg%2F11bwc6t_t2?entry=ttu&g_ep=EgoyMDI0MTEwNi4wIKXMDSoASAFQAw%3D%3D",Doddaballapura
Sobha Crystal Meadows ,12.9046144,77.7181041,"https://www.google.com/maps/place/SOBHA+Crystal+Meadows/@12.9046144,77.7181041,17z/data=!3m1!4b1!4m6!3m5!1s0x3bae13b045da25ab:0xd5304d751fff336f!8m2!3d12.9046092!4d77.720679!16s%2Fg%2F11vyyv21s9?entry=ttu&g_ep=EgoyMDI0MTEwNi4wIKXMDSoASAFQAw%3D%3D",Mullur
Icon by the Lake,12.9183824,77.5534033,"https://www.google.com/maps/search/Icon+by+the+Lake,+Bengaluru,+Karnataka,+India/@12.9183824,77.5534033,11z/data=!3m1!4b1?entry=ttu&g_ep=EgoyMDI0MTEwNi4wIKXMDSoASAFQAw%3D%3D",Uttarahalli
Salarpuria-Sattva Anugraha,26.9444513,75.9347108,"https://www.google.com/maps/search/Salarpuria-Sattva+Anugraha,+Bengaluru,+Karnataka,+India/@26.9444513,75.9347108,15z?entry=ttu&g_ep=EgoyMDI0MTEwNi4wIKXMDSoASAFQAw%3D%3D",No matching micromarket
Sai Amogha,13.0369315,77.7030821,"https://www.google.com/maps/place/SAI+AMOGHA,+2%263+BHK+apartment/@13.0369315,77.7030821,17z/data=!3m1!4b1!4m6!3m5!1s0x3bae11640abe6e07:0xaf70f62da58cf45!8m2!3d13.0369263!4d77.705657!16s%2Fg%2F11ty5vr64t?entry=ttu&g_ep=EgoyMDI0MTEwNi4wIKXMDSoASAFQAw%3D%3D",Margondanahalli
Brigade Oasis,12.9715969,77.5919153,"https://www.google.com/maps/place/Brigade+Oasis/@12.9715969,77.5919153,17z/data=!3m1!4b1!4m6!3m5!1s0x3bae1751596a4a5b:0x4d2aa7ab14626051!8m2!3d12.9715917!4d77.5944902!16s%2Fg%2F11vzs1z6rg?entry=ttu&g_ep=EgoyMDI0MTEwNi4wIKXMDSoASAFQAw%3D%3D",Chickpet
Sowparnika Ashiyana,12.9841468,77.7923991,"https://www.google.com/maps/place/Sowparnika+Ashiyana/@12.9841468,77.7923991,17z/data=!3m1!4b1!4m6!3m5!1s0x3bae0ffca7905989:0xbd6b17a19e6bcc4b!8m2!3d12.9841416!4d77.794974!16s%2Fg%2F11hlmfb99f?entry=ttu&g_ep=EgoyMDI0MTEwNi4wIKXMDSoASAFQAw%3D%3D",Hoskote
Bhavisha Bentley Goldberg,13.0779105,77.6896886,"https://www.google.com/maps/place/Bhavisha+Bentley+Goldberg/@13.0779105,77.6896886,17z/data=!3m1!4b1!4m6!3m5!1s0x3bae1b40cbd48905:0x4ed940420c2ec6c5!8m2!3d13.0779053!4d77.6922635!16s%2Fg%2F11y24nlg7f?entry=ttu&g_ep=EgoyMDI0MTEwNi4wIKXMDSoASAFQAw%3D%3D",Kada agrahara
Aban Dazzle,12.8820564,77.7721446,"https://www.google.com/maps/place/Aban+Dazzle/@12.8820564,77.7721446,17z/data=!3m1!4b1!4m6!3m5!1s0x3bae73192d8a242b:0xca4e4041d7fca157!8m2!3d12.8820512!4d77.7747195!16s%2Fg%2F11kr6pqwtw?entry=ttu&g_ep=EgoyMDI0MTEwNi4wIKXMDSoASAFQAw%3D%3D",Sarjapura
Provident Woodfield,12.7963595,77.6798792,"https://www.google.com/maps/place/Provident+Woodfield+(Purva+Woodfield)/@12.7963595,77.6798792,17z/data=!3m1!4b1!4m6!3m5!1s0x3bae6d007bf93c21:0x280519e02e5f13e5!8m2!3d12.7963543!4d77.6824541!16s%2Fg%2F11lf3_y7c5?entry=ttu&g_ep=EgoyMDI0MTEwNi4wIKXMDSoASAFQAw%3D%3D",Bommasandra
Meda Heights,12.9156229,77.6911749,"https://www.google.com/maps/place/Meda+Heights/@12.9156229,77.6911749,17z/data=!3m1!4b1!4m6!3m5!1s0x3bae13d7537bbab3:0x621ea3a8034bae35!8m2!3d12.9156177!4d77.6937498!16s%2Fg%2F11fhr1gf11?entry=ttu&g_ep=EgoyMDI0MTEwNi4wIKXMDSoASAFQAw%3D%3D",Kaikondrahalli
Brigade El Dorado Krypton,13.1455328,77.6775589,"https://www.google.com/maps/place/Krypton+at+Brigade+El+Dorado/@13.1455328,77.6775589,17z/data=!3m1!4b1!4m6!3m5!1s0x3bae1bf003572423:0x3bb587fad38c1868!8m2!3d13.1455276!4d77.6801338!16s%2Fg%2F11t7yg095l?entry=ttu&g_ep=EgoyMDI0MTEwNi4wIKXMDSoASAFQAw%3D%3D",KIADB Park
Orchid Bloomsberry,12.9396294,77.7184015,"https://www.google.com/maps/place/Orchid+Bloomsberry+-+Goyal+%26+Co+%7C+Hariyana+Group/@12.9396294,77.7184015,17z/data=!3m1!4b1!4m6!3m5!1s0x3bae138844e1b105:0xcaa59cf20feadf76!8m2!3d12.9396242!4d77.7209764!16s%2Fg%2F11r3c1071k?entry=ttu&g_ep=EgoyMDI0MTEwNi4wIKXMDSoASAFQAw%3D%3D",Balagere
Prestige Glenbrook,12.9693284,77.737697,"https://www.google.com/maps/place/Prestige+Glenbrook/@12.9693284,77.737697,17z/data=!3m1!4b1!4m6!3m5!1s0x3bae130f08f27e89:0x38e4c42040e9109b!8m2!3d12.9693232!4d77.7402719!16s%2Fg%2F11s4_tg_ht?entry=ttu&g_ep=EgoyMDI0MTEwNi4wIKXMDSoASAFQAw%3D%3D",White Field
Nandi Meraki,12.8573572,77.6040234,"https://www.google.com/maps/search/Nandi+Meraki,+Bengaluru,+Karnataka,+India/@12.8573572,77.6040234,17z/data=!3m1!4b1?entry=ttu&g_ep=EgoyMDI0MTEwNi4wIKXMDSoASAFQAw%3D%3D",Akshayanagar
SNN Clermont,13.0413094,77.6068589,"https://www.google.com/maps/place/SNN+CLERMONT,+Outer+Ring+Rd,+Opp.+Nagawara+Lake,+Jogappa+Layout,+Hebbal,+Bengaluru,+Karnataka+560032/@13.0413094,77.6068589,17z/data=!3m1!4b1!4m6!3m5!1s0x3bae1775dc131927:0x545617e581726644!8m2!3d13.0412129!4d77.6093979!16s%2Fg%2F11bvtc_41y?entry=ttu&g_ep=EgoyMDI0MTEwNi4wIKXMDSoASAFQAw%3D%3D",Hebbal
DNR Parklink,13.0798568,77.6515584,"https://www.google.com/maps/place/DNR+Parklink/@13.0798568,77.6515584,17z/data=!3m1!4b1!4m6!3m5!1s0x3bae1b609df8c6e9:0x12d076a0a1709793!8m2!3d13.0798516!4d77.6541333!16s%2Fg%2F11ss88whfr?entry=ttu&g_ep=EgoyMDI0MTEwNi4wIKXMDSoASAFQAw%3D%3D",Kannuru
Abhee Riviera Royale,12.8896662,77.6523287,"https://www.google.com/maps/place/Abhee+Riviera+Royale+-+Apartments,+Kudlu+Gate,+Haralur+Road,+HSR+Extension/@12.8896662,77.6523287,17z/data=!3m1!4b1!4m6!3m5!1s0x3bae15fab52e1525:0x684298c79067f15e!8m2!3d12.889661!4d77.6549036!16s%2Fg%2F11vyr27br5?entry=ttu&g_ep=EgoyMDI0MTEwNi4wIKXMDSoASAFQAw%3D%3D",Kudlu
Sowparnika Olivia Nest,12.8562665,77.7994173,"https://www.google.com/maps/place/Sowparnika+Olivia+Nest/@12.8562665,77.7994173,17z/data=!3m1!4b1!4m6!3m5!1s0x3bae731661be3e63:0xf1623cdf77f86790!8m2!3d12.8562613!4d77.8019922!16s%2Fg%2F11s792378z?entry=ttu&g_ep=EgoyMDI0MTEwNi4wIKXMDSoASAFQAw%3D%3D",Sarjapura
Manyata Midlands,12.6836863,77.7142688,"https://www.google.com/maps/place/Manyata+Midlands+-+Exclusive+plotted+development+at+Anekal/@12.6836863,77.7142688,17z/data=!3m1!4b1!4m6!3m5!1s0x692091fb15e8c625:0x3729954d58e0216e!8m2!3d12.6836811!4d77.7168437!16s%2Fg%2F11kc3hncmh?entry=ttu&g_ep=EgoyMDI0MTEwNi4wIKXMDSoASAFQAw%3D%3D",Anekal
Trendsquare Ambience,13.0631674,77.6319178,"https://www.google.com/maps/place/Trendsquares+Ambience/@13.0631674,77.6319178,17z/data=!3m1!4b1!4m6!3m5!1s0x3bae1727a90a23bb:0x1e643800679c96b!8m2!3d13.0631622!4d77.6344927!16s%2Fg%2F11sstbqx1h?entry=ttu&g_ep=EgoyMDI0MTEwNi4wIKXMDSoASAFQAw%3D%3D",Thanisandra
Gravity Aranya,12.8939396,77.4854508,"https://www.google.com/maps/place/Gravity+Aranya/@12.8939396,77.4854508,17z/data=!3m1!4b1!4m6!3m5!1s0x3bae3f6fb5a41beb:0x266b2aa916915002!8m2!3d12.8939344!4d77.4880257!16s%2Fg%2F11jsg88xs9?entry=ttu&g_ep=EgoyMDI0MTEwNi4wIKXMDSoASAFQAw%3D%3D",Banashankari 6th Stage
Jains Aashraya,12.842856,77.5853986,"https://www.google.com/maps/place/Jains+Aashraya/@12.842856,77.5853986,17z/data=!3m1!4b1!4m6!3m5!1s0x3bae6aed9de31fa9:0x22303e2ceaa5d6c2!8m2!3d12.8428508!4d77.5879735!16s%2Fg%2F11g65cg0y6?entry=ttu&g_ep=EgoyMDI0MTEwNi4wIKXMDSoASAFQAw%3D%3D",Akshayanagar
Divyasree 77 East,12.9481088,77.6905806,"https://www.google.com/maps/place/DivyaSree+77+East/@12.9481088,77.6905806,17z/data=!3m1!4b1!4m6!3m5!1s0x3bae13b63a11b177:0x5ef86376600a4ae6!8m2!3d12.9481036!4d77.6931555!16s%2Fg%2F1hhhz8gyb?entry=ttu&g_ep=EgoyMDI0MTEwNi4wIKXMDSoASAFQAw%3D%3D",Marathahalli
ELV Kingsland,12.96955,77.7391128,"https://www.google.com/maps/place/ELV+KINGSLAND/@12.96955,77.7391128,17z/data=!3m1!4b1!4m6!3m5!1s0x3bae12013c8bcc11:0x1cfc39a328fdadf7!8m2!3d12.9695448!4d77.7416877!16s%2Fg%2F11d_thkw5z?entry=ttu&g_ep=EgoyMDI0MTEwNi4wIKXMDSoASAFQAw%3D%3D",White Field
Assetz Marq 3.0,13.0234165,77.7601201,"https://www.google.com/maps/place/Assetz+Marq+3.0+Tower+8/@13.0234165,77.7601201,17z/data=!3m1!4b1!4m6!3m5!1s0x3bae0f3c9fd00387:0x3d1ac92616d3d5c8!8m2!3d13.0234113!4d77.762695!16s%2Fg%2F11l1d34s6q?entry=ttu&g_ep=EgoyMDI0MTEwNi4wIKXMDSoASAFQAw%3D%3D",Kannamangala
Adarsh Parkland,12.9319984,77.7076595,"https://www.google.com/maps/place/Adarsh+Parkland/@12.9319984,77.7076595,17z/data=!3m1!4b1!4m6!3m5!1s0x3bae132fa44c9bff:0xf12b09362545e8c9!8m2!3d12.9319932!4d77.7102344!16s%2Fg%2F11tnnndj40?entry=ttu&g_ep=EgoyMDI0MTEwNi4wIKXMDSoASAFQAw%3D%3D",Panathur
Srivari Forest Breeze,12.8962489,77.5253631,"https://www.google.com/maps/place/Srivari+Forest+Breeze/@12.8962489,77.5253631,17z/data=!3m1!4b1!4m6!3m5!1s0x3bae3ffa330e68d5:0x9722d469953b6765!8m2!3d12.8962437!4d77.527938!16s%2Fg%2F11kc2mhfrx?entry=ttu&g_ep=EgoyMDI0MTEwNi4wIKXMDSoASAFQAw%3D%3D",Uttarahalli
Abhee Silicon Shine,12.9026947,77.7162793,"https://www.google.com/maps/place/Abhee+Silicon+Shine/@12.9026947,77.7162793,17z/data=!3m1!4b1!4m6!3m5!1s0x3bae137fe5523609:0x26a39941c8784d37!8m2!3d12.9026895!4d77.7188542!16s%2Fg%2F11pl69yd8r?entry=ttu&g_ep=EgoyMDI0MTEwNi4wIKXMDSoASAFQAw%3D%3D",Mullur
42 Marquis,12.8382383,77.7208951,"https://www.google.com/maps/place/42+Marquis+villa+-+off+Sarjapura+road/@12.8382383,77.7208951,17z/data=!3m1!4b1!4m6!3m5!1s0x3bae6da98e8d64e1:0xfa9519508e358ecd!8m2!3d12.8382331!4d77.72347!16s%2Fg%2F11rwq1g8gd?entry=ttu&g_ep=EgoyMDI0MTEwNi4wIKXMDSoASAFQAw%3D%3D",Bommasandra
Birla Trimaya,13.1881283,77.6653453,"https://www.google.com/maps/search/Birla+Trimaya,+Bengaluru,+Karnataka,+India/@13.1881283,77.6653453,17z/data=!3m1!4b1?entry=ttu&g_ep=EgoyMDI0MTEwNi4wIKXMDSoASAFQAw%3D%3D",Airport City
Alchemy Elixir,12.8261388,77.6523084,"https://www.google.com/maps/place/Aratt+Alchemy+Elixir/@12.8261388,77.6523084,17z/data=!3m1!4b1!4m6!3m5!1s0x3bae6c788a8b6bfb:0x21960da25cb946f2!8m2!3d12.8261336!4d77.6548833!16s%2Fg%2F11gfh8fgzk?entry=ttu&g_ep=EgoyMDI0MTEwNi4wIKXMDSoASAFQAw%3D%3D",Bommasandra
GRC Shreekrish,12.8856156,77.6779519,"https://www.google.com/maps/place/GRC+SHREEKRISH/@12.8856156,77.6779519,17z/data=!3m1!4b1!4m6!3m5!1s0x3bae133fc5f5fa4b:0x331047ff8cdc5773!8m2!3d12.8856104!4d77.6805268!16s%2Fg%2F11tjcqhqnz?entry=ttu&g_ep=EgoyMDI0MTEwNi4wIKXMDSoASAFQAw%3D%3D",Choodasandra
Urbanest Elite 35,13.0730276,77.7497252,"https://www.google.com/maps/place/URBANEST+ELITE+35/@13.0730276,77.7497252,17z/data=!3m1!4b1!4m6!3m5!1s0x3bae05ea6928132d:0xa5ec32f755dbb944!8m2!3d13.0730224!4d77.7523001!16s%2Fg%2F11kqsxpmjq?entry=ttu&g_ep=EgoyMDI0MTEwNi4wIKXMDSoASAFQAw%3D%3D",Budigere Cross
Mahaveer Northscape,13.2048729,77.6349698,"https://www.google.com/maps/place/Mahaveer+Northscape/@13.2048729,77.6349698,17z/data=!3m1!4b1!4m6!3m5!1s0x3bae1f51c2b18227:0x6dd8bc27be7e46d4!8m2!3d13.2048677!4d77.6375447!16s%2Fg%2F11p62399_m?entry=ttu&g_ep=EgoyMDI0MTEwNi4wIKXMDSoASAFQAw%3D%3D",Devanahalli
Mohan Altura,12.9203219,77.7266853,"https://www.google.com/maps/place/Mohan+Altura/@12.9203219,77.7266853,17z/data=!3m1!4b1!4m6!3m5!1s0x3bae133a39fdc3d1:0x29b65b87322684d7!8m2!3d12.9203167!4d77.7292602!16s%2Fg%2F11rs0pdq1f?entry=ttu&g_ep=EgoyMDI0MTEwNi4wIKXMDSoASAFQAw%3D%3D",Gunjur
Green Boulevard,12.8362149,77.774088,"https://www.google.com/maps/place/Green+Boulevard+-+21+Castle/@12.8362149,77.774088,17z/data=!3m1!4b1!4m6!3m5!1s0x3bae735fa4068a51:0xdeade77b057c8cf4!8m2!3d12.8362097!4d77.7766629!16s%2Fg%2F11p06yy0bw?entry=ttu&g_ep=EgoyMDI0MTEwNi4wIKXMDSoASAFQAw%3D%3D",Sarjapura
Atmos and Aura ,13.1841686,77.6602497,"https://www.google.com/maps/place/Assetz+Atmos+%26+Aura/@13.1841686,77.6602497,17z/data=!3m1!4b1!4m6!3m5!1s0x3bae1f96d33fdb13:0x9fcce5a4394076ea!8m2!3d13.1841634!4d77.6628246!16s%2Fg%2F11frq21tlx?entry=ttu&g_ep=EgoyMDI0MTEwNi4wIKXMDSoASAFQAw%3D%3D",Airport City
Sattva Bliss,13.062496,77.743289,"https://www.google.com/maps/place/Sattva+Bliss/@13.062496,77.743289,17z/data=!3m1!4b1!4m6!3m5!1s0x3bae0f7107da7669:0xde9ee7f9af8932e6!8m2!3d13.0624908!4d77.7458639!16s%2Fg%2F11k4rwv28n?entry=ttu&g_ep=EgoyMDI0MTEwNi4wIKXMDSoASAFQAw%3D%3D",Budigere Cross
Godrej Athena,12.9685705,77.6646701,"https://www.google.com/maps/place/Godrej+Athena,+Indiranagar+Bangalore/@12.9685705,77.6646701,17z/data=!3m1!4b1!4m6!3m5!1s0x3bae13f28dd089d7:0xb39af5c7a6a08d9f!8m2!3d12.9685653!4d77.667245!16s%2Fg%2F11tns5p73x?entry=ttu&g_ep=EgoyMDI0MTEwNi4wIKXMDSoASAFQAw%3D%3D",HAL Airport
Signature Tulips Uptown,13.0648131,77.7614492,"https://www.google.com/maps/place/Signature+Tulips/@13.0648131,77.7614492,17z/data=!3m1!4b1!4m6!3m5!1s0x3bae0ff5e36b2337:0xba64326d6ee8120!8m2!3d13.0648079!4d77.7640241!16s%2Fg%2F1tfqjtwf?entry=ttu&g_ep=EgoyMDI0MTEwNi4wIKXMDSoASAFQAw%3D%3D",Hoskote
Saroj Whispering Winds,13.0959162,77.9463238,"https://www.google.com/maps/place/Saroj+Whispering+winds-+Villa+Plots+in+Narsapura+Industrial+Area/@13.0959162,77.9463238,17z/data=!3m1!4b1!4m6!3m5!1s0x3badfd0bf6617dc5:0xa4cd737485f68e91!8m2!3d13.095911!4d77.9488987!16s%2Fg%2F11h5s2k977?entry=ttu&g_ep=EgoyMDI0MTEwNi4wIKXMDSoASAFQAw%3D%3D",No matching micromarket
Aura,12.9975743,77.438601,"https://www.google.com/maps/search/Aura,+Bengaluru,+Karnataka,+India/@12.9975743,77.438601,11z/data=!3m1!4b1?entry=ttu&g_ep=EgoyMDI0MTEwNi4wIKXMDSoASAFQAw%3D%3D",Gongadipura
Sobha Lake Gardens,13.0193867,77.7214389,"https://www.google.com/maps/place/Sobha+Lake+Gardens/@13.0193867,77.7214389,17z/data=!3m1!4b1!4m6!3m5!1s0x3bae11773c895081:0x4fc00dd2c3030e6!8m2!3d13.0193815!4d77.7240138!16s%2Fg%2F11f78bbb19?entry=ttu&g_ep=EgoyMDI0MTEwNi4wIKXMDSoASAFQAw%3D%3D",Sadaramangala
Around The Life,12.9873944,77.7346904,"https://www.google.com/maps/place/Around+The+Life/@12.9873944,77.7346904,17z/data=!3m1!4b1!4m6!3m5!1s0x3bae11e4eff65539:0x7fee05cf6797f908!8m2!3d12.9873892!4d77.7372653!16s%2Fg%2F11kjt4qzy3?entry=ttu&g_ep=EgoyMDI0MTEwNi4wIKXMDSoASAFQAw%3D%3D",Hudi
Prestige Waterford,12.9821571,77.7411295,"https://www.google.com/maps/place/Prestige+Waterford/@12.9821571,77.7411295,17z/data=!3m1!4b1!4m6!3m5!1s0x3bae1140a51448ab:0xc1e3bb2948afbff4!8m2!3d12.9821519!4d77.7437044!16s%2Fg%2F11jm_2bhpm?entry=ttu&g_ep=EgoyMDI0MTEwNi4wIKXMDSoASAFQAw%3D%3D",Hudi
Concorde Equity,13.033151,77.955386,"https://www.google.com/maps/place/Concorde+Equity+-+Villa+plots+in+Malur/@13.033151,77.955386,17z/data=!3m1!4b1!4m6!3m5!1s0x3bade322d603161f:0x7cff3cff36cf4b90!8m2!3d13.0331458!4d77.9579609!16s%2Fg%2F11ts7nykw6?entry=ttu&g_ep=EgoyMDI0MTEwNi4wIKXMDSoASAFQAw%3D%3D",No matching micromarket
SNN Raj Bay Vista,12.8982045,77.6087414,"https://www.google.com/maps/place/SNN+Raj+Bay+Vista/@12.8982045,77.6087414,17z/data=!3m1!4b1!4m6!3m5!1s0x3bae1592b778acf3:0x5f98020b620a8632!8m2!3d12.8981993!4d77.6113163!16s%2Fg%2F11tp514zxd?entry=ttu&g_ep=EgoyMDI0MTEwNi4wIKXMDSoASAFQAw%3D%3D",Bilekhalli
Golden Pearl ,12.9147373,77.5279216,"https://www.google.com/maps/search/Golden+Pearl+,+Bengaluru,+Karnataka,+India/@12.9147373,77.5279216,11z/data=!3m1!4b1?entry=ttu&g_ep=EgoyMDI0MTEwNi4wIKXMDSoASAFQAw%3D%3D",Rajarajeshwari Nagar
Shriram Wyt Field,13.0707759,77.7438259,"https://www.google.com/maps/place/Shriram+WYTField/@13.0707759,77.7438259,17z/data=!3m1!4b1!4m6!3m5!1s0x3bae05535519b8e1:0x122145e61d24a11e!8m2!3d13.0707707!4d77.7464008!16s%2Fg%2F11tcw1v6vg?entry=ttu&g_ep=EgoyMDI0MTEwNi4wIKXMDSoASAFQAw%3D%3D",Budigere Cross
Provident Capella,12.9927727,77.8034597,"https://www.google.com/maps/place/Provident+Capella/@12.9927727,77.8034597,17z/data=!3m1!4b1!4m6!3m5!1s0x3bae0f426171efe5:0x7c46453cb4fe95be!8m2!3d12.9927675!4d77.8060346!16s%2Fg%2F11h6crt112?entry=ttu&g_ep=EgoyMDI0MTEwNi4wIKXMDSoASAFQAw%3D%3D",Hoskote
Orchid Life,12.9264749,77.7248571,"https://www.google.com/maps/place/Orchid+Life+-+Goyal+%26+Co+%7C+Hariyana+Group/@12.9264749,77.7248571,17z/data=!3m1!4b1!4m6!3m5!1s0x3bae13000bdbaaf3:0x10442141b095e927!8m2!3d12.9264697!4d77.727432!16s%2Fg%2F11vpcnwn3x?entry=ttu&g_ep=EgoyMDI0MTEwNi4wIKXMDSoASAFQAw%3D%3D",Gunjur
Bluejay Lakeview Estate,12.9466432,77.3905518,"https://www.google.com/maps/search/Bluejay+Lakeview+Estate,+Bengaluru,+Karnataka,+India/@12.9466432,77.3905518,11z/data=!3m1!4b1?entry=ttu&g_ep=EgoyMDI0MTEwNi4wIKXMDSoASAFQAw%3D%3D",Gongadipura
DS Max Spoorthi,12.8170736,77.7730228,"https://www.google.com/maps/place/DS+MAX+Spoorthi/@12.8170736,77.7730228,17z/data=!3m1!4b1!4m6!3m5!1s0x3bae73e1e4fd6405:0x236d1346632b1185!8m2!3d12.8170684!4d77.7755977!16s%2Fg%2F11rcbs018t?entry=ttu&g_ep=EgoyMDI0MTEwNi4wIKXMDSoASAFQAw%3D%3D",Adigondanahalli
Down by the water,13.0914261,77.6097547,"https://www.google.com/maps/place/Down+by+the+Water+%7C+Total+Environment/@13.0914261,77.6097547,17z/data=!3m1!4b1!4m6!3m5!1s0x3bae19282d439b19:0xc994a75f4367bbd3!8m2!3d13.0914209!4d77.6123296!16s%2Fg%2F11w3lw8blt?entry=ttu&g_ep=EgoyMDI0MTEwNi4wIKXMDSoASAFQAw%3D%3D",Yelahanka
RJ Lake Gardenia,13.0183566,77.7046941,"https://www.google.com/maps/place/RJ+Lake+Gardenia/@13.0183566,77.7046941,17z/data=!3m1!4b1!4m6!3m5!1s0x3bae11ad1ecde55b:0x44b12806ba269210!8m2!3d13.0183514!4d77.707269!16s%2Fg%2F11vhbwz6fc?entry=ttu&g_ep=EgoyMDI0MTEwNi4wIKXMDSoASAFQAw%3D%3D",K R Puram
Lavivant,12.8260931,77.7839033,"https://www.google.com/maps/place/La+Vivant/@12.8260931,77.7839033,17z/data=!3m1!4b1!4m6!3m5!1s0x3bae724c36fc4d5b:0xb71b471993e3c367!8m2!3d12.8260879!4d77.7864782!16s%2Fg%2F11vhxct69g?entry=ttu&g_ep=EgoyMDI0MTEwNi4wIKXMDSoASAFQAw%3D%3D",Sarjapura
Sowparnika Life On The Green,12.8004473,77.7830113,"https://www.google.com/maps/place/Sowparnika+Life+On+The+Green/@12.8004473,77.7830113,17z/data=!3m1!4b1!4m6!3m5!1s0x3bae73d935719c95:0x74f652f62430951d!8m2!3d12.8004421!4d77.7855862!16s%2Fg%2F11txfs8jbm?entry=ttu&g_ep=EgoyMDI0MTEwNi4wIKXMDSoASAFQAw%3D%3D",Bidaraguppe
Honey Comb Homes,12.893869,77.4715543,"https://www.google.com/maps/place/HONEYCOMB+HOMES+APARTMENT/@12.893869,77.4715543,17z/data=!3m1!4b1!4m6!3m5!1s0x3bae3f66ccd86c3b:0x45d94b66c25d1c8d!8m2!3d12.8938638!4d77.4741292!16s%2Fg%2F11vf30wg85?entry=ttu&g_ep=EgoyMDI0MTEwNi4wIKXMDSoASAFQAw%3D%3D",Challaghatta
Provident Ecopolitan,13.1463514,77.6804955,"https://www.google.com/maps/search/Provident+Ecopolitan,+Bengaluru,+Karnataka,+India/@13.1463514,77.6804955,17z/data=!3m1!4b1?entry=ttu&g_ep=EgoyMDI0MTEwNi4wIKXMDSoASAFQAw%3D%3D",KIADB Park
Chandrika Paradise,12.7241383,77.6930495,"https://www.google.com/maps/place/Chandrika+Paradise/@12.7241383,77.6930495,17z/data=!3m1!4b1!4m6!3m5!1s0x3bae6f92995d7867:0x98af4c5306f4a107!8m2!3d12.7241331!4d77.6956244!16s%2Fg%2F11sjtj_0f0?entry=ttu&g_ep=EgoyMDI0MTEwNi4wIKXMDSoASAFQAw%3D%3D",Anekal
MJR Opus ,12.853684,77.8079038,"https://www.google.com/maps/place/MJR+Opus/@12.853684,77.8079038,17z/data=!3m1!4b1!4m6!3m5!1s0x3bae731db8e489a9:0x1ed1f41efc431770!8m2!3d12.8536788!4d77.8104787!16s%2Fg%2F11tf6cn4rp?entry=ttu&g_ep=EgoyMDI0MTEwNi4wIKXMDSoASAFQAw%3D%3D",Sarjapura
Sarang By Sumadhura,13.0295812,77.7496052,"https://www.google.com/maps/place/Sarang+by+Sumadhura+Phase+-+1/@13.0295812,77.7496052,17z/data=!3m1!4b1!4m6!3m5!1s0x3bae0f7eb0b054af:0xa1f290c625ed5f6d!8m2!3d13.029576!4d77.7521801!16s%2Fg%2F11v01y3s2s?entry=ttu&g_ep=EgoyMDI0MTEwNi4wIKXMDSoASAFQAw%3D%3D",Kannamangala
Vanantara Jiva,13.0297092,77.5703723,"https://www.google.com/maps/place/Vanantara+Jiva/@13.0297092,77.5703723,17z/data=!3m1!4b1!4m6!3m5!1s0x3bae171f638c1279:0xd4f548e95e9e450a!8m2!3d13.029704!4d77.5729472!16s%2Fg%2F11y4qwd6l2?entry=ttu&g_ep=EgoyMDI0MTEwNi4wIKXMDSoASAFQAw%3D%3D",IISC
Brigade Calista,13.0628727,77.737328,"https://www.google.com/maps/place/Brigade+Calista/@13.0628727,77.737328,17z/data=!3m1!4b1!4m6!3m5!1s0x3bae11119c2c4af1:0x4ef16363317c99b5!8m2!3d13.0628675!4d77.7399029!16s%2Fg%2F11tk9_lh3m?entry=ttu&g_ep=EgoyMDI0MTEwNi4wIKXMDSoASAFQAw%3D%3D",Cheemasandra
Godrej Splendour,13.0117158,77.7433583,"https://www.google.com/maps/place/Godrej+Splendour,+Whitefield+Bangalore/@13.0117158,77.7433583,17z/data=!3m1!4b1!4m6!3m5!1s0x3bae0f76a01f6405:0xb01eed2d016c1c23!8m2!3d13.0117106!4d77.7459332!16s%2Fg%2F11rvc2jz0r?entry=ttu&g_ep=EgoyMDI0MTEwNi4wIKXMDSoASAFQAw%3D%3D",Kannamangala
Adarsh Welkin Park Villas,12.944372,77.626355,"https://www.google.com/maps/place/ADARSH+WELKIN+PARK/@12.944372,77.626355,17z/data=!3m1!4b1!4m6!3m5!1s0x3bae14404418f9f1:0x4c5d235a1e3cf2f8!8m2!3d12.9443668!4d77.6289299!16s%2Fg%2F11vrtwgsm1?entry=ttu&g_ep=EgoyMDI0MTEwNi4wIKXMDSoASAFQAw%3D%3D",Koramangala
Adarsh Stratuss,12.9024165,77.5827478,"https://www.google.com/maps/place/Adarsh+Stratuss/@12.9024165,77.5827478,17z/data=!3m1!4b1!4m6!3m5!1s0x3bae15e404b74f79:0xbafe6786586ac7e1!8m2!3d12.9024113!4d77.5853227!16s%2Fg%2F11j00n3v_y?entry=ttu&g_ep=EgoyMDI0MTEwNi4wIKXMDSoASAFQAw%3D%3D",Bilekhalli
Macasa Emerald,12.8900984,77.693097,"https://www.google.com/maps/search/Macasa+Emerald,+Bengaluru,+Karnataka,+India/@12.8900984,77.693097,17z/data=!3m1!4b1?entry=ttu&g_ep=EgoyMDI0MTEwNi4wIKXMDSoASAFQAw%3D%3D",Choodasandra
Prestige Park Grove,13.019073,77.7548732,"https://www.google.com/maps/place/Prestige+Park+Grove/@13.019073,77.7548732,17z/data=!3m1!4b1!4m6!3m5!1s0x3bae0fd93f34b90b:0x4e7121644b1d30b1!8m2!3d13.0190678!4d77.7574481!16s%2Fg%2F11rsrnmr5x?entry=ttu&g_ep=EgoyMDI0MTEwNi4wIKXMDSoASAFQAw%3D%3D",Kannamangala
Prestige Finsbury Park Regent,13.1419761,77.6818314,"https://www.google.com/maps/search/Prestige+Finsbury+Park+Regent,+Bengaluru,+Karnataka,+India/@13.1419761,77.6818314,17z/data=!3m1!4b1?entry=ttu&g_ep=EgoyMDI0MTEwNi4wIKXMDSoASAFQAw%3D%3D",KIADB Park
Lakeside24,12.9544595,77.3012638,"https://www.google.com/maps/search/Lakeside24,+Bengaluru,+Karnataka,+India/@12.9544595,77.3012638,10z/data=!3m1!4b1?entry=ttu&g_ep=EgoyMDI0MTEwNi4wIKXMDSoASAFQAw%3D%3D",Bangalore South
Spring Green Meadows,12.7372116,77.7346223,"https://www.google.com/maps/place/Spring+Green+Meadows+Villas/@12.7372116,77.7346223,17z/data=!3m1!4b1!4m6!3m5!1s0x3bae6f006ec4cebf:0xa4aefc6a39ccfb0!8m2!3d12.7372064!4d77.7371972!16s%2Fg%2F11vm2bmkj1?entry=ttu&g_ep=EgoyMDI0MTEwNi4wIKXMDSoASAFQAw%3D%3D",Anekal
Beverly Hills,2.1638664,74.2777763,"https://www.google.com/maps/dir/Beverly+Hills,+California,+USA/Bengaluru,+Karnataka,+India/@2.1638664,74.2777763,3z/data=!3m1!4b1!4m13!4m12!1m5!1m1!1s0x80c2bc04d6d147ab:0xd6c7c379fd081ed1!2m2!1d-118.4003563!2d34.0736204!1m5!1m1!1s0x3bae1670c9b44e6d:0xf8dfc3e8517e4fe0!2m2!1d77.5945627!2d12.9715987?entry=ttu&g_ep=EgoyMDI0MTEwNi4wIKXMDSoASAFQAw%3D%3D",No matching micromarket
JRC Palladio ,12.8293607,77.7693187,"https://www.google.com/maps/place/JRC+PALLADIO/@12.8293607,77.7693187,17z/data=!3m1!4b1!4m6!3m5!1s0x3bae724a1f3f40f7:0xd7e84082421a4418!8m2!3d12.8293555!4d77.7718936!16s%2Fg%2F11svk8lhh0?entry=ttu&g_ep=EgoyMDI0MTEwNi4wIKXMDSoASAFQAw%3D%3D",Sarjapura
DS Max Senate,12.868465,77.6320243,"https://www.google.com/maps/place/DS-MAX+Senate/@12.868465,77.6320243,17z/data=!3m1!4b1!4m6!3m5!1s0x3bae6b3c56881203:0x207421575943b11!8m2!3d12.8684598!4d77.6345992!16s%2Fg%2F11t6h7wyb0?entry=ttu&g_ep=EgoyMDI0MTEwNi4wIKXMDSoASAFQAw%3D%3D",Begur
Bhavisha Avighna,12.8810651,77.7716814,"https://www.google.com/maps/place/Bhavisha+Avighna/@12.8810651,77.7716814,17z/data=!3m1!4b1!4m6!3m5!1s0x3bae136ac93e0e4f:0xf0ae5b8f1779d269!8m2!3d12.8810599!4d77.7742563!16s%2Fg%2F11ldv4wpxb?entry=ttu&g_ep=EgoyMDI0MTEwNi4wIKXMDSoASAFQAw%3D%3D",Sarjapura
SLN Plazzo,12.9490873,77.7701958,"https://www.google.com/maps/place/SLN+Palazzo/@12.9490873,77.7701958,17z/data=!3m1!4b1!4m6!3m5!1s0x3bae0de736469433:0x97228aea6d0558e2!8m2!3d12.9490821!4d77.7727707!16s%2Fg%2F11txft2v7k?entry=ttu&g_ep=EgoyMDI0MTEwNi4wIKXMDSoASAFQAw%3D%3D",Hoskote
woodsvale,12.8856804,77.7898716,"https://www.google.com/maps/place/Woodsvale/@12.8856804,77.7898716,17z/data=!3m1!4b1!4m6!3m5!1s0x3bae7350bb3692c5:0xc223dc1da5b5d08f!8m2!3d12.8856752!4d77.7924465!16s%2Fg%2F11p60tfn1b?entry=ttu&g_ep=EgoyMDI0MTEwNi4wIKXMDSoASAFQAw%3D%3D",Sarjapura
Prestige Green Gables,12.9380848,77.6981905,"https://www.google.com/maps/place/Prestige+Green+Gables/@12.9380848,77.6981905,17z/data=!3m1!4b1!4m6!3m5!1s0x3bae13b82f81bfeb:0x937b7fac33655c3d!8m2!3d12.9380796!4d77.7007654!16s%2Fg%2F11jny4rv0t?entry=ttu&g_ep=EgoyMDI0MTEwNi4wIKXMDSoASAFQAw%3D%3D",Kadubeesanahalli
Garuda Creekview,13.0283299,77.720921,"https://www.google.com/maps/place/Garuda+CREEKVIEW/@13.0283299,77.720921,17z/data=!3m1!4b1!4m6!3m5!1s0x3bae104d870f0d49:0x55aee302a77f4adf!8m2!3d13.0283247!4d77.7234959!16s%2Fg%2F11tgds6w2v?entry=ttu&g_ep=EgoyMDI0MTEwNi4wIKXMDSoASAFQAw%3D%3D",Sadaramangala
Green Orchid,12.8838671,77.6097548,"https://www.google.com/maps/place/Green+Orchid,+Royal+Residency+Layout+-+BTM+4th+stg,+Royal+Residency+Layout,+Arekere,+Bengaluru,+Karnataka+560076/@12.8838671,77.6097548,17z/data=!3m1!4b1!4m6!3m5!1s0x3bae14d6a3a044d3:0x9e0de691784f19e6!8m2!3d12.8838619!4d77.6123297!16s%2Fg%2F12hlsjsrt?entry=ttu&g_ep=EgoyMDI0MTEwNi4wIKXMDSoASAFQAw%3D%3D",Akshayanagar
Assetz Bloom & Dell,13.0251157,77.7438334,"https://www.google.com/maps/place/Assetz+Bloom+%26+Dell/@13.0251157,77.7438334,17z/data=!3m1!4b1!4m6!3m5!1s0x3bae0f2eb72e8b4d:0x2c3241f5ddfe5c0!8m2!3d13.0251105!4d77.7464083!16s%2Fg%2F11scp951km?entry=ttu&g_ep=EgoyMDI0MTEwNi4wIKXMDSoASAFQAw%3D%3D",Kannamangala
Shanders court yard,12.9205618,77.4469121,"https://www.google.com/maps/search/Shanders+court+yard,+Bengaluru,+Karnataka,+India/@12.9205618,77.4469121,11z/data=!3m1!4b1?entry=ttu&g_ep=EgoyMDI0MTEwNi4wIKXMDSoASAFQAw%3D%3D",Gongadipura
Nikoo Homes,13.0918134,77.6067892,"https://www.google.com/maps/search/Nikoo+Homes,+Bengaluru,+Karnataka,+India/@13.0918134,77.6067892,14z/data=!3m1!4b1?entry=ttu&g_ep=EgoyMDI0MTEwNi4wIKXMDSoASAFQAw%3D%3D",Jakkur
Nexsa Acuity,13.072037,77.6504344,"https://www.google.com/maps/place/Nexsa+Acuity/@13.072037,77.6504344,17z/data=!3m1!4b1!4m6!3m5!1s0x3bae1179b7cb402b:0xbb5d155f16684370!8m2!3d13.0720318!4d77.6530093!16s%2Fg%2F11v5s1nc1m?entry=ttu&g_ep=EgoyMDI0MTEwNi4wIKXMDSoASAFQAw%3D%3D",Narayanapura
Sobha Neopolis,12.9336173,77.7141303,"https://www.google.com/maps/place/SOBHA+Neopolis/@12.9336173,77.7141303,17z/data=!3m1!4b1!4m6!3m5!1s0x3bae13de030c640d:0x75981729dbc28690!8m2!3d12.9336121!4d77.7167052!16s%2Fg%2F11sk61n4jp?entry=ttu&g_ep=EgoyMDI0MTEwNi4wIKXMDSoASAFQAw%3D%3D",Panathur
Inspira Infinity,12.9058192,77.7027699,"https://www.google.com/maps/place/Inspira+Infinity/@12.9058192,77.7027699,17z/data=!3m1!4b1!4m6!3m5!1s0x3bae13ec13fc4539:0x4c69135ec7765be7!8m2!3d12.905814!4d77.7053448!16s%2Fg%2F11mpc8fbtt?entry=ttu&g_ep=EgoyMDI0MTEwNi4wIKXMDSoASAFQAw%3D%3D",Carmelaram
Mahendra Aarya,12.8260081,77.7041806,"https://www.google.com/maps/place/Mahendra+Aarya/@12.8260081,77.7041806,17z/data=!3m1!4b1!4m6!3m5!1s0x3bae6d80610c0eff:0x3f0eb5f89361c8c2!8m2!3d12.8260029!4d77.7067555!16s%2Fg%2F11r3ly8r2n?entry=ttu&g_ep=EgoyMDI0MTEwNi4wIKXMDSoASAFQAw%3D%3D",Bommasandra
Pride Altius,13.0498013,77.4932708,"https://www.google.com/maps/place/Pride+Altius/@13.0498013,77.4932708,17z/data=!3m1!4b1!4m6!3m5!1s0x3bae3d7c07c74831:0x3e62582fbe42315!8m2!3d13.0497961!4d77.4958457!16s%2Fg%2F11jsr8q44k?entry=ttu&g_ep=EgoyMDI0MTEwNi4wIKXMDSoASAFQAw%3D%3D",Nagasandra
Brigade Laguna,13.0650473,77.606811,"https://www.google.com/maps/place/Brigade+Laguna/@13.0650473,77.606811,17z/data=!3m1!4b1!4m6!3m5!1s0x3bae17e880043263:0x3b683d69907ef702!8m2!3d13.0650421!4d77.6093859!16s%2Fg%2F11c1nzbb6m?entry=ttu&g_ep=EgoyMDI0MTEwNi4wIKXMDSoASAFQAw%3D%3D",Jakkur
Century Seasons,12.9893875,77.5900203,"https://www.google.com/maps/place/Century+Seasons/@12.9893875,77.5900203,17z/data=!3m1!4b1!4m6!3m5!1s0x3bae1669d984f49b:0x384a408b3a3406e8!8m2!3d12.9893823!4d77.5925952!16s%2Fg%2F11krmb26tq?entry=ttu&g_ep=EgoyMDI0MTEwNi4wIKXMDSoASAFQAw%3D%3D",Vasanth Nagar
Equinox Raindrop,13.231871,77.5924799,"https://www.google.com/maps/place/EQUINOX+RAINDROP/@13.231871,77.5924799,17z/data=!3m1!4b1!4m6!3m5!1s0x3bae1f00132c81cd:0xa702ab3c324b5c03!8m2!3d13.2318658!4d77.5950548!16s%2Fg%2F11vlyv4sq1?entry=ttu&g_ep=EgoyMDI0MTEwNi4wIKXMDSoASAFQAw%3D%3D",Devanahalli
C R Serenity,12.8748308,77.6082963,"https://www.google.com/maps/place/C+R+Serenity/@12.8748308,77.6082963,17z/data=!3m1!4b1!4m6!3m5!1s0x3bae6be1eb38bc07:0xa51934e8e3316a45!8m2!3d12.8748256!4d77.6108712!16s%2Fg%2F11l76ndx3n?entry=ttu&g_ep=EgoyMDI0MTEwNi4wIKXMDSoASAFQAw%3D%3D",Akshayanagar
The Right Life,12.8990619,77.7452834,"https://www.google.com/maps/place/Mana+Skanda's+The+Right+Life/@12.8990619,77.7452834,17z/data=!3m1!4b1!4m6!3m5!1s0x3bae0dc0ad20cbbb:0x68e80745218128fa!8m2!3d12.8990567!4d77.7478583!16s%2Fg%2F11vc1jk3v0?entry=ttu&g_ep=EgoyMDI0MTEwNi4wIKXMDSoASAFQAw%3D%3D",Kachamaranahalli
Mahaveer Grandis,12.8830091,77.5835888,"https://www.google.com/maps/place/Mahaveer+Grandis/@12.8830091,77.5835888,17z/data=!3m1!4b1!4m6!3m5!1s0x3bae150046f1e6c9:0x3f30f7a590380ae2!8m2!3d12.8830039!4d77.5861637!16s%2Fg%2F11y3rl77rw?entry=ttu&g_ep=EgoyMDI0MTEwNi4wIKXMDSoASAFQAw%3D%3D",Bilekhalli
Sobaha Crystal Meadows ,12.9046144,77.7181041,"https://www.google.com/maps/place/SOBHA+Crystal+Meadows/@12.9046144,77.7181041,17z/data=!3m1!4b1!4m6!3m5!1s0x3bae13b045da25ab:0xd5304d751fff336f!8m2!3d12.9046092!4d77.720679!16s%2Fg%2F11vyyv21s9?entry=ttu&g_ep=EgoyMDI0MTEwNi4wIKXMDSoASAFQAw%3D%3D",Mullur
Ranka Countryside,12.7579641,77.6202677,"https://www.google.com/maps/place/Ranka+Countryside/@12.7579641,77.6202677,17z/data=!3m1!4b1!4m6!3m5!1s0x3bae694dd8fadb1d:0x489240ba97485e01!8m2!3d12.7579589!4d77.6228426!16s%2Fg%2F11n8j9x21d?entry=ttu&g_ep=EgoyMDI0MTEwNi4wIKXMDSoASAFQAw%3D%3D",Anekal
RAK Felicity,13.2658772,77.7253752,"https://www.google.com/maps/place/RAK+Felicity+by+Vencer/@13.2658772,77.7253752,17z/data=!3m1!4b1!4m6!3m5!1s0x3bb1e39fcd91c1ff:0xef679dd01d09196a!8m2!3d13.265872!4d77.7279501!16s%2Fg%2F11jyll4kbp?entry=ttu&g_ep=EgoyMDI0MTEwNi4wIKXMDSoASAFQAw%3D%3D",Devanahalli
Abhee Kings Court,12.8867948,77.7648852,"https://www.google.com/maps/place/Abhee+King's+Court/@12.8867948,77.7648852,17z/data=!3m1!4b1!4m6!3m5!1s0x3bae0d1877eea1e7:0xba37140437921dd9!8m2!3d12.8867896!4d77.7674601!16s%2Fg%2F11twfb6fxc?entry=ttu&g_ep=EgoyMDI0MTEwNi4wIKXMDSoASAFQAw%3D%3D",Sarjapura
Paradise on Earth,12.8464511,77.4589728,"https://www.google.com/maps/place/Urbanrise+Paradise+on+Earth/@12.8464511,77.4589728,17z/data=!3m1!4b1!4m6!3m5!1s0x3bae38c490000001:0xe1d124aa566e616e!8m2!3d12.8464459!4d77.4615477!16s%2Fg%2F11vhfdqwk2?entry=ttu&g_ep=EgoyMDI0MTEwNi4wIKXMDSoASAFQAw%3D%3D",Challaghatta
Guru Punvaanii Etasha,13.0670938,77.3903782,"https://www.google.com/maps/place/Guru+Punvaanii+Etasha/@13.0670938,77.3903782,17z/data=!3m1!4b1!4m6!3m5!1s0x3bae258ca9e0193b:0x9f305e5c2928ffd1!8m2!3d13.0670886!4d77.3929531!16s%2Fg%2F11ks3vf7f9?entry=ttu&g_ep=EgoyMDI0MTEwNi4wIKXMDSoASAFQAw%3D%3D",Nelamangala
Mana Capitol,12.9023803,77.700794,"https://www.google.com/maps/place/Mana+Capitol+Commercial/@12.9023803,77.700794,17z/data=!3m1!4b1!4m6!3m5!1s0x3bae12de3c23c633:0x21517f2dd18e48a2!8m2!3d12.9023751!4d77.7033689!16s%2Fg%2F11bbw_nd59?entry=ttu&g_ep=EgoyMDI0MTEwNi4wIKXMDSoASAFQAw%3D%3D",Carmelaram
Tangled Up In Green ,13.2636805,77.6799994,"https://www.google.com/maps/search/Tangled+Up+In+Green+,+Bengaluru,+Karnataka,+India/@13.2636805,77.6799994,17z/data=!3m1!4b1?entry=ttu&g_ep=EgoyMDI0MTEwNi4wIKXMDSoASAFQAw%3D%3D",Devanahalli
Trendsquares Ortus,13.0430884,77.5828164,"https://www.google.com/maps/search/Trendsquares+Ortus,+Bengaluru,+Karnataka,+India/@13.0430884,77.5828164,13z/data=!3m1!4b1?entry=ttu&g_ep=EgoyMDI0MTEwNi4wIKXMDSoASAFQAw%3D%3D",Hebbal
DNR Arista,12.9224304,77.6723407,"https://www.google.com/maps/place/DNR+Arista/@12.9224304,77.6723407,17z/data=!3m1!4b1!4m6!3m5!1s0x3bae13e7ace3b2ff:0xc675d3a7a60870f8!8m2!3d12.9224252!4d77.6749156!16s%2Fg%2F11vkh_c9dg?entry=ttu&g_ep=EgoyMDI0MTEwNi4wIKXMDSoASAFQAw%3D%3D",Bellandur
Arvind Forest Trails,12.8553277,77.8021696,"https://www.google.com/maps/place/Arvind+Forest+Trails,+Sarjapur/@12.8553277,77.8021696,17z/data=!3m1!4b1!4m6!3m5!1s0x3bae73e6ad8919a7:0xe80c8cd327d487a!8m2!3d12.8553225!4d77.8047445!16s%2Fg%2F11y1nlg7xy?entry=ttu&g_ep=EgoyMDI0MTEwNi4wIKXMDSoASAFQAw%3D%3D",Sarjapura
GR Sitara,12.8807814,77.6735226,"https://www.google.com/maps/place/GR+Sitara/@12.8807814,77.6735226,17z/data=!3m1!4b1!4m6!3m5!1s0x3bae6d48e4143435:0x6f5dc60d862cf2f6!8m2!3d12.8807762!4d77.6760975!16s%2Fg%2F11rtp0ml5w?entry=ttu&g_ep=EgoyMDI0MTEwNi4wIKXMDSoASAFQAw%3D%3D",Naganathapura
Sobha City Athena,13.0772483,77.6315886,"https://www.google.com/maps/place/SOBHA+Athena/@13.0772483,77.6315886,17z/data=!3m1!4b1!4m6!3m5!1s0x3bae1917c6133fa9:0x56b11a0a00514cfc!8m2!3d13.0772431!4d77.6341635!16s%2Fg%2F11n68jg_cx?entry=ttu&g_ep=EgoyMDI0MTEwNi4wIKXMDSoASAFQAw%3D%3D",Thanisandra
Shriram Pristine Estates,13.2921959,77.5501014,"https://www.google.com/maps/place/Shriram+Pristine+Estates/@13.2921959,77.5501014,17z/data=!3m1!4b1!4m6!3m5!1s0x3bb1dfef8a69a419:0xa26ea9d6e9cecdc1!8m2!3d13.2921907!4d77.5526763!16s%2Fg%2F11tp8bq6r2?entry=ttu&g_ep=EgoyMDI0MTEwNi4wIKXMDSoASAFQAw%3D%3D",Doddaballapura
Purva Park Hill,12.8540595,77.5425574,"https://www.google.com/maps/place/Purva+Park+Hill/@12.8540595,77.5425574,17z/data=!3m1!4b1!4m6!3m5!1s0x3bae15a8390e91d3:0xa37d9ed80a8035bc!8m2!3d12.8540543!4d77.5451323!16s%2Fg%2F11swl27r80?entry=ttu&g_ep=EgoyMDI0MTEwNi4wIKXMDSoASAFQAw%3D%3D",Banashankari 6th Stage
Prestige Somerville,12.9546264,77.7400794,"https://www.google.com/maps/place/Prestige+Somerville/@12.9546264,77.7400794,17z/data=!3m1!4b1!4m6!3m5!1s0x3bae1349c05ecccd:0x54e2e646817eddcd!8m2!3d12.9546212!4d77.7426543!16s%2Fg%2F11sv_y9w2v?entry=ttu&g_ep=EgoyMDI0MTEwNi4wIKXMDSoASAFQAw%3D%3D",White Field
Adarsh Crest,13.0498669,77.5963045,"https://www.google.com/maps/place/Adarsh+Crest/@13.0498669,77.5963045,17z/data=!3m1!4b1!4m6!3m5!1s0x3bae17daf609636b:0xc11c8597da446d67!8m2!3d13.0498617!4d77.5988794!16s%2Fg%2F11pq9g_lts?entry=ttu&g_ep=EgoyMDI0MTEwNi4wIKXMDSoASAFQAw%3D%3D",Hebbal
Assetz 22 & crest,12.8875832,77.7029731,"https://www.google.com/maps/place/Assetz+leaves+and+lives,+RH+22/@12.8875832,77.7029731,17z/data=!3m1!4b1!4m6!3m5!1s0x3bae135d131107d5:0xeb015aae44c7c6e4!8m2!3d12.887578!4d77.705548!16s%2Fg%2F11vh_480_8?entry=ttu&g_ep=EgoyMDI0MTEwNi4wIKXMDSoASAFQAw%3D%3D",Chikkakannalli
JRC Sanzio,12.8276941,77.7722229,"https://www.google.com/maps/place/JRC+SANZIO/@12.8276941,77.7722229,17z/data=!3m1!4b1!4m6!3m5!1s0x3bae73514049cb81:0x13103112517ee4d3!8m2!3d12.8276889!4d77.7747978!16s%2Fg%2F11vljhbs3h?entry=ttu&g_ep=EgoyMDI0MTEwNi4wIKXMDSoASAFQAw%3D%3D",Sarjapura
